{
"type": "FeatureCollection",
"features": [
{
  "type": "Feature",
  "id": "node/30223685",
  "properties": {
    "public_transport": "stop_position",
    "railway": "tram_stop",
    "tram": "yes",
    "id": "node/30223685"
  },
  "geometry": {
    "type": "Point",
    "coordinates": [
      144.9983564,
      -37.7565545
    ]
  }
},
{
  "type": "Feature",
  "id": "node/122817630",
  "properties": {
    "name": "Stop D1: Stadium Precinct",
    "network": "PTV - Metropolitan Trams",
    "operator": "Yarra Trams",
    "public_transport": "stop_position",
    "railway": "tram_stop",
    "ref": "D1",
    "tram": "yes",
    "id": "node/122817630"
  },
  "geometry": {
    "type": "Point",
    "coordinates": [
      144.9464029,
      -37.8146128
    ]
  }
},
{
  "type": "Feature",
  "id": "way/217625262",
  "properties": {
    "area": "yes",
    "bench": "yes",
    "bin": "yes",
    "covered": "yes",
    "layer": "1",
    "lit": "yes",
    "name": "Stop 124A: Casino/MCEC",
    "network": "PTV - Metropolitan Trams",
    "operator": "Yarra Trams",
    "public_transport": "platform",
    "railway": "tram_stop",
    "ref": "124A",
    "route_ref": "12;96;109",
    "shelter": "yes",
    "tactile_paving": "yes",
    "tram": "yes",
    "wheelchair": "yes",
    "id": "way/217625262"
  },
  "geometry": {
    "type": "Point",
    "coordinates": [
      144.9561895,
      -37.8233457
    ]
  }
},
{
  "type": "Feature",
  "id": "way/217625264",
  "properties": {
    "area": "yes",
    "bench": "yes",
    "bin": "yes",
    "layer": "1",
    "lit": "yes",
    "name": "Stop 124A: Casino/MCEC",
    "network": "PTV - Metropolitan Trams",
    "operator": "Yarra Trams",
    "public_transport": "platform",
    "railway": "tram_stop",
    "ref": "124A",
    "route_ref": "12;96;109",
    "shelter": "yes",
    "tactile_paving": "yes",
    "tram": "yes",
    "wheelchair": "yes",
    "id": "way/217625264"
  },
  "geometry": {
    "type": "Point",
    "coordinates": [
      144.9560853,
      -37.8233745
    ]
  }
},
{
  "type": "Feature",
  "id": "node/252587671",
  "properties": {
    "name": "Stop 7D: AAMI Park",
    "network": "PTV - Metropolitan Trams",
    "operator": "Yarra Trams",
    "public_transport": "stop_position",
    "railway": "tram_stop",
    "ref": "7D",
    "tram": "yes",
    "id": "node/252587671"
  },
  "geometry": {
    "type": "Point",
    "coordinates": [
      144.986794,
      -37.824109
    ]
  }
},
{
  "type": "Feature",
  "id": "node/252588293",
  "properties": {
    "name": "Stop 7A: William Barak Bridge",
    "network": "PTV - Metropolitan Trams",
    "operator": "Yarra Trams",
    "public_transport": "stop_position",
    "railway": "tram_stop",
    "ref": "7A",
    "tram": "yes",
    "id": "node/252588293"
  },
  "geometry": {
    "type": "Point",
    "coordinates": [
      144.9759799,
      -37.8182346
    ]
  }
},
{
  "type": "Feature",
  "id": "node/267328963",
  "properties": {
    "bench": "yes",
    "name": "Stop 30: St Kilda Junction",
    "network": "PTV - Metropolitan Trams",
    "operator": "Yarra Trams",
    "public_transport": "stop_position",
    "railway": "tram_stop",
    "ref": "30",
    "shelter": "yes",
    "shelter_type": "public_transport",
    "tram": "yes",
    "wheelchair": "no",
    "id": "node/267328963"
  },
  "geometry": {
    "type": "Point",
    "coordinates": [
      144.9825049,
      -37.8553492
    ]
  }
},
{
  "type": "Feature",
  "id": "node/272268719",
  "properties": {
    "name": "Stop 58: Warrigal Road",
    "network": "PTV - Metropolitan Trams",
    "operator": "Yarra Trams",
    "public_transport": "stop_position",
    "railway": "tram_stop",
    "ref": "58",
    "tram": "yes",
    "id": "node/272268719"
  },
  "geometry": {
    "type": "Point",
    "coordinates": [
      145.0958378,
      -37.8504122
    ]
  }
},
{
  "type": "Feature",
  "id": "node/277090010",
  "properties": {
    "name": "Stop 10: Nicholson Street",
    "network": "PTV - Metropolitan Trams",
    "operator": "Yarra Trams",
    "public_transport": "stop_position",
    "railway": "tram_stop",
    "ref": "10",
    "tram": "yes",
    "wheelchair": "no",
    "id": "node/277090010"
  },
  "geometry": {
    "type": "Point",
    "coordinates": [
      144.9728292,
      -37.8078641
    ]
  }
},
{
  "type": "Feature",
  "id": "node/514111594",
  "properties": {
    "name": "Stop 70: Cotham Road",
    "network": "PTV - Metropolitan Trams",
    "operator": "Yarra Trams",
    "public_transport": "stop_position",
    "railway": "tram_stop",
    "ref": "70",
    "tram": "yes",
    "id": "node/514111594"
  },
  "geometry": {
    "type": "Point",
    "coordinates": [
      145.0605966,
      -37.8108707
    ]
  }
},
{
  "type": "Feature",
  "id": "node/560988352",
  "properties": {
    "name": "Stop D17: Collins Landing",
    "network": "PTV - Metropolitan Trams",
    "operator": "Yarra Trams",
    "public_transport": "stop_position",
    "railway": "tram_stop",
    "ref": "D17",
    "tram": "yes",
    "id": "node/560988352"
  },
  "geometry": {
    "type": "Point",
    "coordinates": [
      144.9451739,
      -37.821546
    ]
  }
},
{
  "type": "Feature",
  "id": "node/589527617",
  "properties": {
    "name": "Stop 1: Spencer Street",
    "network": "PTV - Metropolitan Trams",
    "operator": "Yarra Trams",
    "public_transport": "stop_position",
    "railway": "tram_stop",
    "ref": "1",
    "tram": "yes",
    "id": "node/589527617"
  },
  "geometry": {
    "type": "Point",
    "coordinates": [
      144.9558302,
      -37.820851
    ]
  }
},
{
  "type": "Feature",
  "id": "node/591430826",
  "properties": {
    "name": "Stop 5: Flinders Street Station, Swanston Street",
    "network": "PTV - Metropolitan Trams",
    "network:wikidata": "Q7257648",
    "operator": "Keolis Downer",
    "operator:wikidata": "Q6328065",
    "public_transport": "stop_position",
    "railway": "tram_stop",
    "ref": "5",
    "tram": "yes",
    "id": "node/591430826"
  },
  "geometry": {
    "type": "Point",
    "coordinates": [
      144.9664923,
      -37.8177847
    ]
  }
},
{
  "type": "Feature",
  "id": "node/767584117",
  "properties": {
    "name": "Stop 9: La Trobe Street",
    "network": "PTV - Metropolitan Trams",
    "operator": "Yarra Trams",
    "public_transport": "stop_position",
    "railway": "tram_stop",
    "ref": "9",
    "route_ref": "30",
    "tram": "yes",
    "id": "node/767584117"
  },
  "geometry": {
    "type": "Point",
    "coordinates": [
      144.9709587,
      -37.8075899
    ]
  }
},
{
  "type": "Feature",
  "id": "node/767592577",
  "properties": {
    "name": "Stop 10: Nicholson Street",
    "network": "PTV - Metropolitan Trams",
    "operator": "Yarra Trams",
    "public_transport": "stop_position",
    "railway": "tram_stop",
    "ref": "10",
    "tram": "yes",
    "id": "node/767592577"
  },
  "geometry": {
    "type": "Point",
    "coordinates": [
      144.9735633,
      -37.807982
    ]
  }
},
{
  "type": "Feature",
  "id": "node/780979469",
  "properties": {
    "name": "Stop 11: Errol Street",
    "network": "PTV - Metropolitan Trams",
    "operator": "Yarra Trams",
    "public_transport": "stop_position",
    "railway": "tram_stop",
    "ref": "11",
    "tram": "yes",
    "wheelchair": "no",
    "id": "node/780979469"
  },
  "geometry": {
    "type": "Point",
    "coordinates": [
      144.9494877,
      -37.805171
    ]
  }
},
{
  "type": "Feature",
  "id": "node/780992745",
  "properties": {
    "name": "Stop 11: Victoria Street",
    "network": "PTV - Metropolitan Trams",
    "operator": "Yarra Trams",
    "public_transport": "stop_position",
    "railway": "tram_stop",
    "ref": "11",
    "tram": "yes",
    "wheelchair": "no",
    "id": "node/780992745"
  },
  "geometry": {
    "type": "Point",
    "coordinates": [
      144.949315,
      -37.8049766
    ]
  }
},
{
  "type": "Feature",
  "id": "node/781137165",
  "properties": {
    "name": "Stop 12: North Melbourne Town Hall",
    "network": "PTV - Metropolitan Trams",
    "operator": "Yarra Trams",
    "public_transport": "stop_position",
    "railway": "tram_stop",
    "ref": "12",
    "tram": "yes",
    "id": "node/781137165"
  },
  "geometry": {
    "type": "Point",
    "coordinates": [
      144.9495579,
      -37.8032213
    ]
  }
},
{
  "type": "Feature",
  "id": "node/822445227",
  "properties": {
    "name": "Stop 39: Mercy College",
    "network": "PTV - Metropolitan Trams",
    "network:wikidata": "Q7257648",
    "operator": "Keolis Downer",
    "operator:wikidata": "Q6328065",
    "public_transport": "stop_position",
    "railway": "tram_stop",
    "ref": "39",
    "tram": "yes",
    "id": "node/822445227"
  },
  "geometry": {
    "type": "Point",
    "coordinates": [
      144.9638014,
      -37.7303988
    ]
  }
},
{
  "type": "Feature",
  "id": "node/848375933",
  "properties": {
    "name": "Stop 19: Shrine of Remembrance",
    "network": "PTV - Metropolitan Trams",
    "network:wikidata": "Q7257648",
    "operator": "Keolis Downer",
    "operator:wikidata": "Q6328065",
    "public_transport": "stop_position",
    "railway": "tram_stop",
    "ref": "19",
    "tram": "yes",
    "id": "node/848375933"
  },
  "geometry": {
    "type": "Point",
    "coordinates": [
      144.9712768,
      -37.8290824
    ]
  }
},
{
  "type": "Feature",
  "id": "node/889978449",
  "properties": {
    "name": "Stop 56: Caulfield Racecourse",
    "network": "PTV - Metropolitan Trams",
    "operator": "Yarra Trams",
    "public_transport": "stop_position",
    "railway": "tram_stop",
    "ref": "56",
    "tram": "yes",
    "id": "node/889978449"
  },
  "geometry": {
    "type": "Point",
    "coordinates": [
      145.0393464,
      -37.8754536
    ]
  }
},
{
  "type": "Feature",
  "id": "node/890029910",
  "properties": {
    "name": "Stop 57: Caulfield Station",
    "network": "PTV – Metropolitan Trams",
    "operator": "Yarra Trams",
    "public_transport": "stop_position",
    "railway": "tram_stop",
    "ref": "57",
    "ref:ptv": "18651",
    "tram": "yes",
    "website": "https://ptv.vic.gov.au/stop/2299",
    "id": "node/890029910"
  },
  "geometry": {
    "type": "Point",
    "coordinates": [
      145.0417745,
      -37.8763788
    ]
  }
},
{
  "type": "Feature",
  "id": "node/890029922",
  "properties": {
    "name": "Stop 58: Dandenong Road",
    "network": "PTV - Metropolitan Trams",
    "operator": "Yarra Trams",
    "public_transport": "stop_position",
    "railway": "tram_stop",
    "ref": "58",
    "tram": "yes",
    "id": "node/890029922"
  },
  "geometry": {
    "type": "Point",
    "coordinates": [
      145.041914,
      -37.8756881
    ]
  }
},
{
  "type": "Feature",
  "id": "node/890030002",
  "properties": {
    "name": "Stop 59: Dandenong Road",
    "network": "PTV - Metropolitan Trams",
    "operator": "Yarra Trams",
    "public_transport": "stop_position",
    "railway": "tram_stop",
    "ref": "59",
    "tram": "yes",
    "id": "node/890030002"
  },
  "geometry": {
    "type": "Point",
    "coordinates": [
      145.0451286,
      -37.8757034
    ]
  }
},
{
  "type": "Feature",
  "id": "node/890040684",
  "properties": {
    "name": "Stop 57: Caulfield Station",
    "network": "PTV – Metropolitan Trams",
    "operator": "Yarra Trams",
    "public_transport": "stop_position",
    "railway": "tram_stop",
    "ref": "57",
    "ref:ptv": "18457",
    "tram": "yes",
    "website": "https://ptv.vic.gov.au/stop/2299",
    "id": "node/890040684"
  },
  "geometry": {
    "type": "Point",
    "coordinates": [
      145.0418141,
      -37.8763751
    ]
  }
},
{
  "type": "Feature",
  "id": "node/890045787",
  "properties": {
    "name": "Stop 59: Dandenong Road",
    "network": "PTV - Metropolitan Trams",
    "operator": "Yarra Trams",
    "public_transport": "stop_position",
    "railway": "tram_stop",
    "ref": "59",
    "tram": "yes",
    "id": "node/890045787"
  },
  "geometry": {
    "type": "Point",
    "coordinates": [
      145.0450381,
      -37.8758273
    ]
  }
},
{
  "type": "Feature",
  "id": "node/892673570",
  "properties": {
    "name": "Stop 55: Balaclava Road",
    "network": "PTV - Metropolitan Trams",
    "operator": "Yarra Trams",
    "public_transport": "stop_position",
    "railway": "tram_stop",
    "ref": "55",
    "tram": "yes",
    "id": "node/892673570"
  },
  "geometry": {
    "type": "Point",
    "coordinates": [
      145.0381571,
      -37.8744338
    ]
  }
},
{
  "type": "Feature",
  "id": "node/1060780601",
  "properties": {
    "name": "Stop 131: St Kilda Road",
    "network": "PTV - Metropolitan Trams",
    "operator": "Yarra Trams",
    "public_transport": "stop_position",
    "railway": "tram_stop",
    "ref": "131",
    "tram": "yes",
    "id": "node/1060780601"
  },
  "geometry": {
    "type": "Point",
    "coordinates": [
      144.9822212,
      -37.8569256
    ]
  }
},
{
  "type": "Feature",
  "id": "node/1214516660",
  "properties": {
    "name": "Stop 34: Inkerman Street",
    "network": "PTV - Metropolitan Trams",
    "operator": "Yarra Trams",
    "public_transport": "stop_position",
    "railway": "tram_stop",
    "ref": "34",
    "tram": "yes",
    "id": "node/1214516660"
  },
  "geometry": {
    "type": "Point",
    "coordinates": [
      144.9854699,
      -37.8640537
    ]
  }
},
{
  "type": "Feature",
  "id": "node/1217111671",
  "properties": {
    "name": "Stop 37: Chapel Street",
    "network": "PTV - Metropolitan Trams",
    "operator": "Yarra Trams",
    "public_transport": "stop_position",
    "railway": "tram_stop",
    "ref": "37",
    "tram": "yes",
    "id": "node/1217111671"
  },
  "geometry": {
    "type": "Point",
    "coordinates": [
      144.990034,
      -37.8683127
    ]
  }
},
{
  "type": "Feature",
  "id": "node/1217111746",
  "properties": {
    "name": "Stop 37: Carlisle Street",
    "network": "PTV - Metropolitan Trams",
    "operator": "Yarra Trams",
    "public_transport": "stop_position",
    "railway": "tram_stop",
    "ref": "37",
    "tram": "yes",
    "id": "node/1217111746"
  },
  "geometry": {
    "type": "Point",
    "coordinates": [
      144.9904178,
      -37.8681668
    ]
  }
},
{
  "type": "Feature",
  "id": "node/1218550520",
  "properties": {
    "name": "Stop 40: Scott Street",
    "network": "PTV - Metropolitan Trams",
    "operator": "Yarra Trams",
    "public_transport": "stop_position",
    "railway": "tram_stop",
    "ref": "40",
    "tram": "yes",
    "wheelchair": "no",
    "id": "node/1218550520"
  },
  "geometry": {
    "type": "Point",
    "coordinates": [
      144.9939021,
      -37.878945
    ]
  }
},
{
  "type": "Feature",
  "id": "node/1218554281",
  "properties": {
    "name": "Stop 41: Coleridge Street",
    "network": "PTV - Metropolitan Trams",
    "operator": "Yarra Trams",
    "public_transport": "stop_position",
    "railway": "tram_stop",
    "ref": "41",
    "tram": "yes",
    "id": "node/1218554281"
  },
  "geometry": {
    "type": "Point",
    "coordinates": [
      144.9951425,
      -37.8808208
    ]
  }
},
{
  "type": "Feature",
  "id": "node/1277984714",
  "properties": {
    "name": "Stop 63: Hopkins Street",
    "network": "PTV - Metropolitan Trams",
    "operator": "Yarra Trams",
    "public_transport": "stop_position",
    "railway": "tram_stop",
    "ref": "63",
    "tram": "yes",
    "wheelchair": "no",
    "id": "node/1277984714"
  },
  "geometry": {
    "type": "Point",
    "coordinates": [
      144.9011412,
      -37.8000779
    ]
  }
},
{
  "type": "Feature",
  "id": "node/1277984725",
  "properties": {
    "name": "Stop 62: Nicholson Street",
    "network": "PTV - Metropolitan Trams",
    "operator": "Yarra Trams",
    "public_transport": "stop_position",
    "railway": "tram_stop",
    "ref": "62",
    "tram": "yes",
    "id": "node/1277984725"
  },
  "geometry": {
    "type": "Point",
    "coordinates": [
      144.899784,
      -37.7998055
    ]
  }
},
{
  "type": "Feature",
  "id": "node/1279996092",
  "properties": {
    "name": "Stop 29: Brunswick Road",
    "network": "PTV - Metropolitan Trams",
    "network:wikidata": "Q7257648",
    "operator": "Keolis Downer",
    "operator:wikidata": "Q6328065",
    "public_transport": "stop_position",
    "railway": "tram_stop",
    "ref": "29",
    "tram": "yes",
    "id": "node/1279996092"
  },
  "geometry": {
    "type": "Point",
    "coordinates": [
      144.9487786,
      -37.7758243
    ]
  }
},
{
  "type": "Feature",
  "id": "node/1280096210",
  "properties": {
    "name": "Stop 19: Royal Children's Hospital",
    "network": "PTV - Metropolitan Trams",
    "operator": "Yarra Trams",
    "public_transport": "stop_position",
    "railway": "tram_stop",
    "ref": "19",
    "tram": "yes",
    "id": "node/1280096210"
  },
  "geometry": {
    "type": "Point",
    "coordinates": [
      144.9483435,
      -37.7943072
    ]
  }
},
{
  "type": "Feature",
  "id": "node/1280096226",
  "properties": {
    "name": "Stop 19: Royal Children's Hospital",
    "network": "PTV - Metropolitan Trams",
    "operator": "Yarra Trams",
    "public_transport": "stop_position",
    "railway": "tram_stop",
    "ref": "19",
    "tram": "yes",
    "id": "node/1280096226"
  },
  "geometry": {
    "type": "Point",
    "coordinates": [
      144.947835,
      -37.7939444
    ]
  }
},
{
  "type": "Feature",
  "id": "node/1287339285",
  "properties": {
    "bench": "no",
    "name": "Stop 113: Lytton Street",
    "network": "PTV - Metropolitan Trams",
    "operator": "Yarra Trams",
    "public_transport": "stop_position",
    "railway": "tram_stop",
    "ref": "113",
    "shelter": "no",
    "tram": "yes",
    "wheelchair": "no",
    "id": "node/1287339285"
  },
  "geometry": {
    "type": "Point",
    "coordinates": [
      144.9680936,
      -37.7941059
    ]
  }
},
{
  "type": "Feature",
  "id": "node/1287339313",
  "properties": {
    "bench": "no",
    "name": "Stop 113: Lytton Street",
    "network": "PTV - Metropolitan Trams",
    "operator": "Yarra Trams",
    "public_transport": "stop_position",
    "railway": "tram_stop",
    "ref": "113",
    "shelter": "no",
    "tram": "yes",
    "wheelchair": "no",
    "id": "node/1287339313"
  },
  "geometry": {
    "type": "Point",
    "coordinates": [
      144.9680531,
      -37.7941152
    ]
  }
},
{
  "type": "Feature",
  "id": "node/1297046428",
  "properties": {
    "bench": "no",
    "name": "Stop 117: Richardson Street",
    "network": "PTV - Metropolitan Trams",
    "operator": "Yarra Trams",
    "public_transport": "stop_position",
    "railway": "tram_stop",
    "ref": "117",
    "shelter": "no",
    "tram": "yes",
    "wheelchair": "no",
    "id": "node/1297046428"
  },
  "geometry": {
    "type": "Point",
    "coordinates": [
      144.9697677,
      -37.7840084
    ]
  }
},
{
  "type": "Feature",
  "id": "node/1297046431",
  "properties": {
    "bench": "no",
    "name": "Stop 120: Brunswick Road",
    "network": "PTV - Metropolitan Trams",
    "operator": "Yarra Trams",
    "public_transport": "stop_position",
    "railway": "tram_stop",
    "ref": "120",
    "shelter": "no",
    "tram": "yes",
    "wheelchair": "no",
    "id": "node/1297046431"
  },
  "geometry": {
    "type": "Point",
    "coordinates": [
      144.9706499,
      -37.778443
    ]
  }
},
{
  "type": "Feature",
  "id": "node/1297046486",
  "properties": {
    "bench": "no",
    "name": "Stop 117: Richardson Street",
    "network": "PTV - Metropolitan Trams",
    "operator": "Yarra Trams",
    "public_transport": "stop_position",
    "railway": "tram_stop",
    "ref": "117",
    "shelter": "no",
    "tram": "yes",
    "wheelchair": "no",
    "id": "node/1297046486"
  },
  "geometry": {
    "type": "Point",
    "coordinates": [
      144.9698014,
      -37.7840411
    ]
  }
},
{
  "type": "Feature",
  "id": "node/1449308531",
  "properties": {
    "name": "Stop 13: Simpson Street",
    "network": "PTV - Metropolitan Trams",
    "operator": "Yarra Trams",
    "public_transport": "stop_position",
    "railway": "tram_stop",
    "ref": "13",
    "tram": "yes",
    "id": "node/1449308531"
  },
  "geometry": {
    "type": "Point",
    "coordinates": [
      144.9869962,
      -37.8165985
    ]
  }
},
{
  "type": "Feature",
  "id": "node/1449308639",
  "properties": {
    "name": "Stop 13: Simpson Street",
    "network": "PTV - Metropolitan Trams",
    "operator": "Yarra Trams",
    "public_transport": "stop_position",
    "railway": "tram_stop",
    "ref": "13",
    "tram": "yes",
    "id": "node/1449308639"
  },
  "geometry": {
    "type": "Point",
    "coordinates": [
      144.9870015,
      -37.8165683
    ]
  }
},
{
  "type": "Feature",
  "id": "node/1453758546",
  "properties": {
    "name": "Stop 61: Presbyterian Ladies College",
    "network": "PTV - Metropolitan Trams",
    "operator": "Yarra Trams",
    "public_transport": "stop_position",
    "railway": "tram_stop",
    "ref": "61",
    "tram": "yes",
    "id": "node/1453758546"
  },
  "geometry": {
    "type": "Point",
    "coordinates": [
      145.105769,
      -37.8499352
    ]
  }
},
{
  "type": "Feature",
  "id": "node/1463620486",
  "properties": {
    "name": "Stop 18: Church Street",
    "network": "PTV - Metropolitan Trams",
    "operator": "Yarra Trams",
    "public_transport": "stop_position",
    "railway": "tram_stop",
    "ref": "18",
    "tram": "yes",
    "id": "node/1463620486"
  },
  "geometry": {
    "type": "Point",
    "coordinates": [
      144.9989943,
      -37.8185553
    ]
  }
},
{
  "type": "Feature",
  "id": "node/1479897588",
  "properties": {
    "name": "Stop 2: Melbourne Aquarium",
    "network": "PTV - Metropolitan Trams",
    "operator": "Yarra Trams",
    "public_transport": "stop_position",
    "railway": "tram_stop",
    "ref": "2",
    "tram": "yes",
    "id": "node/1479897588"
  },
  "geometry": {
    "type": "Point",
    "coordinates": [
      144.9577863,
      -37.8202826
    ]
  }
},
{
  "type": "Feature",
  "id": "node/1492145775",
  "properties": {
    "name": "Stop 119: La Trobe Street",
    "network": "PTV - Metropolitan Trams",
    "operator": "Yarra Trams",
    "public_transport": "stop_position",
    "railway": "tram_stop",
    "ref": "119",
    "tram": "yes",
    "id": "node/1492145775"
  },
  "geometry": {
    "type": "Point",
    "coordinates": [
      144.9515077,
      -37.8133498
    ]
  }
},
{
  "type": "Feature",
  "id": "node/1492145782",
  "properties": {
    "name": "Stop 1: Spencer Street",
    "network": "PTV - Metropolitan Trams",
    "operator": "Yarra Trams",
    "public_transport": "stop_position",
    "railway": "tram_stop",
    "ref": "1",
    "tram": "yes",
    "id": "node/1492145782"
  },
  "geometry": {
    "type": "Point",
    "coordinates": [
      144.9517013,
      -37.8131041
    ]
  }
},
{
  "type": "Feature",
  "id": "node/1492145823",
  "properties": {
    "name": "Stop 119: Spencer Street",
    "network": "PTV - Metropolitan Trams",
    "operator": "Yarra Trams",
    "public_transport": "stop_position",
    "railway": "tram_stop",
    "ref": "119",
    "tram": "yes",
    "id": "node/1492145823"
  },
  "geometry": {
    "type": "Point",
    "coordinates": [
      144.9512205,
      -37.8132172
    ]
  }
},
{
  "type": "Feature",
  "id": "node/1492169276",
  "properties": {
    "bench": "yes",
    "name": "Stop 1: Melbourne University",
    "network": "PTV - Metropolitan Trams",
    "operator": "Yarra Trams",
    "public_transport": "stop_position",
    "railway": "tram_stop",
    "ref": "1",
    "route_ref": "1;3;3a;5;6;16;64;67;72",
    "shelter": "yes",
    "tram": "yes",
    "wheelchair": "yes",
    "id": "node/1492169276"
  },
  "geometry": {
    "type": "Point",
    "coordinates": [
      144.9642336,
      -37.7992479
    ]
  }
},
{
  "type": "Feature",
  "id": "node/1492169366",
  "properties": {
    "bench": "yes",
    "name": "Stop 1: Melbourne University",
    "network": "PTV - Metropolitan Trams",
    "operator": "Yarra Trams",
    "public_transport": "stop_position",
    "railway": "tram_stop",
    "ref": "1",
    "route_ref": "1;3;3a;5;6;16;64;67;72",
    "shelter": "yes",
    "tram": "yes",
    "wheelchair": "yes",
    "id": "node/1492169366"
  },
  "geometry": {
    "type": "Point",
    "coordinates": [
      144.9642063,
      -37.7987765
    ]
  }
},
{
  "type": "Feature",
  "id": "node/1497979245",
  "properties": {
    "name": "Stop 50: Williamson Road",
    "network": "PTV - Metropolitan Trams",
    "operator": "Yarra Trams",
    "public_transport": "stop_position",
    "railway": "tram_stop",
    "ref": "50",
    "tram": "yes",
    "id": "node/1497979245"
  },
  "geometry": {
    "type": "Point",
    "coordinates": [
      144.8819037,
      -37.7749269
    ]
  }
},
{
  "type": "Feature",
  "id": "node/1729012294",
  "properties": {
    "name": "Stop 51: Balaclava Road",
    "network": "PTV - Metropolitan Trams",
    "operator": "Yarra Trams",
    "public_transport": "stop_position",
    "railway": "tram_stop",
    "ref": "51",
    "tram": "yes",
    "id": "node/1729012294"
  },
  "geometry": {
    "type": "Point",
    "coordinates": [
      145.0246626,
      -37.8728476
    ]
  }
},
{
  "type": "Feature",
  "id": "node/1729012311",
  "properties": {
    "name": "Stop 51: Hawthorn Road",
    "network": "PTV - Metropolitan Trams",
    "operator": "Yarra Trams",
    "public_transport": "stop_position",
    "railway": "tram_stop",
    "ref": "51",
    "tram": "yes",
    "id": "node/1729012311"
  },
  "geometry": {
    "type": "Point",
    "coordinates": [
      145.024948,
      -37.8727011
    ]
  }
},
{
  "type": "Feature",
  "id": "node/1773284265",
  "properties": {
    "name": "Stop 45: Glenferrie Road",
    "network": "PTV - Metropolitan Trams",
    "operator": "Yarra Trams",
    "public_transport": "stop_position",
    "railway": "tram_stop",
    "ref": "45",
    "tram": "yes",
    "id": "node/1773284265"
  },
  "geometry": {
    "type": "Point",
    "coordinates": [
      145.0285134,
      -37.8623995
    ]
  }
},
{
  "type": "Feature",
  "id": "node/1773284325",
  "properties": {
    "bench": "no",
    "name": "Stop 54: Wattletree Road",
    "network": "PTV - Metropolitan Trams",
    "operator": "Yarra Trams",
    "public_transport": "stop_position",
    "railway": "tram_stop",
    "ref": "54",
    "shelter": "yes",
    "tram": "yes",
    "wheelchair": "no",
    "id": "node/1773284325"
  },
  "geometry": {
    "type": "Point",
    "coordinates": [
      145.0283943,
      -37.8621677
    ]
  }
},
{
  "type": "Feature",
  "id": "node/1773301239",
  "properties": {
    "name": "Stop 44: Duncraig Avenue",
    "network": "PTV - Metropolitan Trams",
    "operator": "Yarra Trams",
    "public_transport": "stop_position",
    "railway": "tram_stop",
    "ref": "44",
    "tram": "yes",
    "id": "node/1773301239"
  },
  "geometry": {
    "type": "Point",
    "coordinates": [
      145.0254911,
      -37.862015
    ]
  }
},
{
  "type": "Feature",
  "id": "node/1773310880",
  "properties": {
    "name": "Stop 42: Kooyong Road",
    "network": "PTV - Metropolitan Trams",
    "operator": "Yarra Trams",
    "public_transport": "stop_position",
    "railway": "tram_stop",
    "ref": "42",
    "tram": "yes",
    "wheelchair": "no",
    "id": "node/1773310880"
  },
  "geometry": {
    "type": "Point",
    "coordinates": [
      145.0198515,
      -37.8612894
    ]
  }
},
{
  "type": "Feature",
  "id": "node/1773337311",
  "properties": {
    "name": "Stop 56: Malvern Tram Depot",
    "network": "PTV - Metropolitan Trams",
    "operator": "Yarra Trams",
    "public_transport": "stop_position",
    "railway": "tram_stop",
    "ref": "56",
    "tram": "yes",
    "id": "node/1773337311"
  },
  "geometry": {
    "type": "Point",
    "coordinates": [
      145.0288809,
      -37.8589922
    ]
  }
},
{
  "type": "Feature",
  "id": "node/1777091653",
  "properties": {
    "name": "Stop 47: Cabrini Hospital",
    "network": "PTV - Metropolitan Trams",
    "operator": "Yarra Trams",
    "public_transport": "stop_position",
    "railway": "tram_stop",
    "ref": "47",
    "tram": "yes",
    "id": "node/1777091653"
  },
  "geometry": {
    "type": "Point",
    "coordinates": [
      145.0335073,
      -37.8630216
    ]
  }
},
{
  "type": "Feature",
  "id": "node/2088187880",
  "properties": {
    "name": "Stop 59: Droop Street",
    "network": "PTV - Metropolitan Trams",
    "operator": "Yarra Trams",
    "public_transport": "stop_position",
    "railway": "tram_stop",
    "ref": "59",
    "tram": "yes",
    "id": "node/2088187880"
  },
  "geometry": {
    "type": "Point",
    "coordinates": [
      144.8934268,
      -37.7923466
    ]
  }
},
{
  "type": "Feature",
  "id": "node/2189352736",
  "properties": {
    "name": "Stop 13: Lansdowne Street",
    "network": "PTV - Metropolitan Trams",
    "operator": "Yarra Trams",
    "public_transport": "stop_position",
    "railway": "tram_stop",
    "ref": "13",
    "tram": "yes",
    "id": "node/2189352736"
  },
  "geometry": {
    "type": "Point",
    "coordinates": [
      144.9783905,
      -37.8084463
    ]
  }
},
{
  "type": "Feature",
  "id": "node/2189382615",
  "properties": {
    "name": "Stop 12: St Vincent's Plaza",
    "network": "PTV - Metropolitan Trams",
    "operator": "Yarra Trams",
    "public_transport": "stop_position",
    "railway": "tram_stop",
    "ref": "12",
    "tram": "yes",
    "id": "node/2189382615"
  },
  "geometry": {
    "type": "Point",
    "coordinates": [
      144.9763385,
      -37.8082458
    ]
  }
},
{
  "type": "Feature",
  "id": "node/2190566773",
  "properties": {
    "name": "Stop 1: Flinders Street Station",
    "network": "PTV – Metropolitan Trams",
    "operator": "Yarra Trams",
    "public_transport": "stop_position",
    "railway": "tram_stop",
    "ref": "1",
    "tram": "yes",
    "wheelchair": "no",
    "id": "node/2190566773"
  },
  "geometry": {
    "type": "Point",
    "coordinates": [
      144.9645712,
      -37.8174353
    ]
  }
},
{
  "type": "Feature",
  "id": "node/2190619591",
  "properties": {
    "name": "Stop 3: Bourke Street Mall",
    "network": "PTV - Metropolitan Trams",
    "operator": "Yarra Trams",
    "public_transport": "stop_position",
    "railway": "tram_stop",
    "ref": "3",
    "toilets:wheelchair": "no",
    "tram": "yes",
    "wheelchair": "yes",
    "id": "node/2190619591"
  },
  "geometry": {
    "type": "Point",
    "coordinates": [
      144.9630639,
      -37.813984
    ]
  }
},
{
  "type": "Feature",
  "id": "node/2190619723",
  "properties": {
    "name": "Stop 5: Melbourne Central Station",
    "network": "PTV - Metropolitan Trams",
    "operator": "Yarra Trams",
    "public_transport": "stop_position",
    "railway": "tram_stop",
    "ref": "5",
    "tram": "yes",
    "id": "node/2190619723"
  },
  "geometry": {
    "type": "Point",
    "coordinates": [
      144.9614218,
      -37.8104888
    ]
  }
},
{
  "type": "Feature",
  "id": "node/2190624239",
  "properties": {
    "name": "Stop 5: Melbourne Central Station, Elizabeth Street",
    "network": "PTV - Metropolitan Trams",
    "operator": "Yarra Trams",
    "public_transport": "stop_position",
    "railway": "tram_stop",
    "ref": "5",
    "tram": "yes",
    "id": "node/2190624239"
  },
  "geometry": {
    "type": "Point",
    "coordinates": [
      144.9611537,
      -37.8103369
    ]
  }
},
{
  "type": "Feature",
  "id": "node/2190624240",
  "properties": {
    "name": "Stop 5: Melbourne Central Station, Elizabeth Street",
    "network": "PTV - Metropolitan Trams",
    "operator": "Yarra Trams",
    "public_transport": "stop_position",
    "railway": "tram_stop",
    "ref": "5",
    "tram": "yes",
    "id": "node/2190624240"
  },
  "geometry": {
    "type": "Point",
    "coordinates": [
      144.9615621,
      -37.8102437
    ]
  }
},
{
  "type": "Feature",
  "id": "node/2190625294",
  "properties": {
    "name": "Stop 6: Melbourne Central Station, Swanston Street",
    "network": "PTV - Metropolitan Trams",
    "operator": "Yarra Trams",
    "public_transport": "stop_position",
    "railway": "tram_stop",
    "ref": "6",
    "tram": "yes",
    "id": "node/2190625294"
  },
  "geometry": {
    "type": "Point",
    "coordinates": [
      144.9636026,
      -37.8096379
    ]
  }
},
{
  "type": "Feature",
  "id": "node/2190625298",
  "properties": {
    "name": "Stop 6: Melbourne Central Station, Swanston Street",
    "network": "PTV - Metropolitan Trams",
    "operator": "Yarra Trams",
    "public_transport": "stop_position",
    "railway": "tram_stop",
    "ref": "6",
    "tram": "yes",
    "id": "node/2190625298"
  },
  "geometry": {
    "type": "Point",
    "coordinates": [
      144.9640442,
      -37.8095426
    ]
  }
},
{
  "type": "Feature",
  "id": "node/2199382854",
  "properties": {
    "fixme": "check for correct name: \"Stop 15: Princes Street\" vs. \"Stop 15: Alexandra Parade\"",
    "name": "Stop 15: Princes Street",
    "network": "PTV - Metropolitan Trams",
    "operator": "Yarra Trams",
    "public_transport": "stop_position",
    "railway": "tram_stop",
    "ref": "15",
    "tram": "yes",
    "id": "node/2199382854"
  },
  "geometry": {
    "type": "Point",
    "coordinates": [
      144.9759491,
      -37.7917415
    ]
  }
},
{
  "type": "Feature",
  "id": "node/2199432744",
  "properties": {
    "name": "Stop 23: Blyth Street",
    "network": "PTV - Metropolitan Trams",
    "operator": "Yarra Trams",
    "public_transport": "stop_position",
    "railway": "tram_stop",
    "ref": "23",
    "tram": "yes",
    "wheelchair": "yes",
    "id": "node/2199432744"
  },
  "geometry": {
    "type": "Point",
    "coordinates": [
      144.9802957,
      -37.7671755
    ]
  }
},
{
  "type": "Feature",
  "id": "node/2200521873",
  "properties": {
    "name": "Stop 11: Melbourne Museum",
    "network": "PTV - Metropolitan Trams",
    "operator": "Yarra Trams",
    "public_transport": "stop_position",
    "railway": "tram_stop",
    "ref": "11",
    "tram": "yes",
    "wheelchair": "yes",
    "id": "node/2200521873"
  },
  "geometry": {
    "type": "Point",
    "coordinates": [
      144.9735371,
      -37.8056752
    ]
  }
},
{
  "type": "Feature",
  "id": "node/2200521878",
  "properties": {
    "name": "Stop 11: Melbourne Museum",
    "network": "PTV - Metropolitan Trams",
    "operator": "Yarra Trams",
    "public_transport": "stop_position",
    "railway": "tram_stop",
    "ref": "11",
    "tram": "yes",
    "wheelchair": "yes",
    "id": "node/2200521878"
  },
  "geometry": {
    "type": "Point",
    "coordinates": [
      144.9735161,
      -37.8062646
    ]
  }
},
{
  "type": "Feature",
  "id": "node/2203914708",
  "properties": {
    "bench": "no",
    "name": "Stop 127: Albion Street",
    "network": "PTV - Metropolitan Trams",
    "network:wikidata": "Q7257648",
    "operator": "Keolis Downer",
    "operator:wikidata": "Q6328065",
    "public_transport": "stop_position",
    "railway": "tram_stop",
    "ref": "127",
    "shelter": "no",
    "tram": "yes",
    "wheelchair": "no",
    "id": "node/2203914708"
  },
  "geometry": {
    "type": "Point",
    "coordinates": [
      144.9739935,
      -37.7619389
    ]
  }
},
{
  "type": "Feature",
  "id": "node/2203914720",
  "properties": {
    "bench": "yes",
    "name": "Stop 127: Albion Street",
    "network": "PTV - Metropolitan Trams",
    "operator": "Yarra Trams",
    "public_transport": "stop_position",
    "railway": "tram_stop",
    "ref": "127",
    "shelter": "no",
    "tram": "yes",
    "wheelchair": "no",
    "id": "node/2203914720"
  },
  "geometry": {
    "type": "Point",
    "coordinates": [
      144.9733133,
      -37.762389
    ]
  }
},
{
  "type": "Feature",
  "id": "node/2203915704",
  "properties": {
    "bench": "yes",
    "name": "Stop 125: Blyth Street",
    "network": "PTV - Metropolitan Trams",
    "operator": "Yarra Trams",
    "public_transport": "stop_position",
    "railway": "tram_stop",
    "ref": "125",
    "shelter": "no",
    "tram": "yes",
    "wheelchair": "no",
    "id": "node/2203915704"
  },
  "geometry": {
    "type": "Point",
    "coordinates": [
      144.9726313,
      -37.76644
    ]
  }
},
{
  "type": "Feature",
  "id": "node/2203950092",
  "properties": {
    "bench": "yes",
    "name": "Stop 126: Stewart Street",
    "network": "PTV - Metropolitan Trams",
    "operator": "Yarra Trams",
    "public_transport": "stop_position",
    "railway": "tram_stop",
    "ref": "126",
    "shelter": "no",
    "tram": "yes",
    "wheelchair": "no",
    "id": "node/2203950092"
  },
  "geometry": {
    "type": "Point",
    "coordinates": [
      144.9730146,
      -37.7642868
    ]
  }
},
{
  "type": "Feature",
  "id": "node/2203950093",
  "properties": {
    "bench": "yes",
    "name": "Stop 126: Stewart Street",
    "network": "PTV - Metropolitan Trams",
    "network:wikidata": "Q7257648",
    "operator": "Keolis Downer",
    "operator:wikidata": "Q6328065",
    "public_transport": "stop_position",
    "railway": "tram_stop",
    "ref": "126",
    "shelter": "no",
    "tram": "yes",
    "wheelchair": "no",
    "id": "node/2203950093"
  },
  "geometry": {
    "type": "Point",
    "coordinates": [
      144.9729565,
      -37.7644227
    ]
  }
},
{
  "type": "Feature",
  "id": "node/2203950280",
  "properties": {
    "bench": "yes",
    "name": "Stop 125: Blyth Street",
    "network": "PTV - Metropolitan Trams",
    "operator": "Yarra Trams",
    "public_transport": "stop_position",
    "railway": "tram_stop",
    "ref": "125",
    "shelter": "no",
    "tram": "yes",
    "wheelchair": "no",
    "id": "node/2203950280"
  },
  "geometry": {
    "type": "Point",
    "coordinates": [
      144.9725553,
      -37.7666545
    ]
  }
},
{
  "type": "Feature",
  "id": "node/2203950504",
  "properties": {
    "bench": "yes",
    "name": "Stop 124: Victoria Street",
    "network": "PTV - Metropolitan Trams",
    "network:wikidata": "Q7257648",
    "operator": "Keolis Downer",
    "operator:wikidata": "Q6328065",
    "public_transport": "stop_position",
    "railway": "tram_stop",
    "ref": "124",
    "shelter": "yes",
    "tram": "yes",
    "wheelchair": "yes",
    "id": "node/2203950504"
  },
  "geometry": {
    "type": "Point",
    "coordinates": [
      144.9722766,
      -37.7682201
    ]
  }
},
{
  "type": "Feature",
  "id": "node/2203950505",
  "properties": {
    "bench": "yes",
    "name": "Stop 124: Victoria Street",
    "network": "PTV - Metropolitan Trams",
    "network:wikidata": "Q7257648",
    "operator": "Keolis Downer",
    "operator:wikidata": "Q6328065",
    "public_transport": "stop_position",
    "railway": "tram_stop",
    "ref": "124",
    "shelter": "no",
    "tram": "yes",
    "wheelchair": "no",
    "id": "node/2203950505"
  },
  "geometry": {
    "type": "Point",
    "coordinates": [
      144.972345,
      -37.7680505
    ]
  }
},
{
  "type": "Feature",
  "id": "node/2203952177",
  "properties": {
    "bench": "yes",
    "name": "Stop 122: Glenlyon Road",
    "network": "PTV - Metropolitan Trams",
    "operator": "Yarra Trams",
    "public_transport": "stop_position",
    "railway": "tram_stop",
    "ref": "122",
    "shelter": "yes",
    "tram": "yes",
    "wheelchair": "no",
    "id": "node/2203952177"
  },
  "geometry": {
    "type": "Point",
    "coordinates": [
      144.9715481,
      -37.772525
    ]
  }
},
{
  "type": "Feature",
  "id": "node/2203952178",
  "properties": {
    "bench": "yes",
    "name": "Stop 123: Albert Street",
    "network": "PTV - Metropolitan Trams",
    "operator": "Yarra Trams",
    "public_transport": "stop_position",
    "railway": "tram_stop",
    "ref": "123",
    "shelter": "no",
    "tram": "yes",
    "wheelchair": "no",
    "id": "node/2203952178"
  },
  "geometry": {
    "type": "Point",
    "coordinates": [
      144.9720632,
      -37.7696313
    ]
  }
},
{
  "type": "Feature",
  "id": "node/2203952179",
  "properties": {
    "bench": "yes",
    "name": "Stop 123: Albert Street",
    "network": "PTV - Metropolitan Trams",
    "operator": "Yarra Trams",
    "public_transport": "stop_position",
    "railway": "tram_stop",
    "ref": "123",
    "shelter": "yes",
    "tram": "yes",
    "wheelchair": "no",
    "id": "node/2203952179"
  },
  "geometry": {
    "type": "Point",
    "coordinates": [
      144.9719995,
      -37.769777
    ]
  }
},
{
  "type": "Feature",
  "id": "node/2203952180",
  "properties": {
    "bench": "yes",
    "name": "Stop 122: Glenlyon Road",
    "network": "PTV - Metropolitan Trams",
    "operator": "Yarra Trams",
    "public_transport": "stop_position",
    "railway": "tram_stop",
    "ref": "122",
    "shelter": "yes",
    "tram": "yes",
    "wheelchair": "no",
    "id": "node/2203952180"
  },
  "geometry": {
    "type": "Point",
    "coordinates": [
      144.9714709,
      -37.7727581
    ]
  }
},
{
  "type": "Feature",
  "id": "node/2203953511",
  "properties": {
    "bench": "yes",
    "name": "Stop 121: Weston Street",
    "network": "PTV - Metropolitan Trams",
    "operator": "Yarra Trams",
    "public_transport": "stop_position",
    "railway": "tram_stop",
    "ref": "121",
    "shelter": "yes",
    "tram": "yes",
    "wheelchair": "no",
    "id": "node/2203953511"
  },
  "geometry": {
    "type": "Point",
    "coordinates": [
      144.9710694,
      -37.7755141
    ]
  }
},
{
  "type": "Feature",
  "id": "node/2203953512",
  "properties": {
    "bench": "yes",
    "name": "Stop 121: Weston Street",
    "network": "PTV - Metropolitan Trams",
    "operator": "Yarra Trams",
    "public_transport": "stop_position",
    "railway": "tram_stop",
    "ref": "121",
    "shelter": "no",
    "tram": "yes",
    "wheelchair": "no",
    "id": "node/2203953512"
  },
  "geometry": {
    "type": "Point",
    "coordinates": [
      144.9710056,
      -37.7756771
    ]
  }
},
{
  "type": "Feature",
  "id": "node/2203970119",
  "properties": {
    "name": "Stop 22: Albert Street",
    "network": "PTV - Metropolitan Trams",
    "operator": "Yarra Trams",
    "public_transport": "stop_position",
    "railway": "tram_stop",
    "ref": "22",
    "tram": "yes",
    "wheelchair": "yes",
    "id": "node/2203970119"
  },
  "geometry": {
    "type": "Point",
    "coordinates": [
      144.9797619,
      -37.7700673
    ]
  }
},
{
  "type": "Feature",
  "id": "node/2203970122",
  "properties": {
    "name": "Stop 22: Albert Street",
    "network": "PTV - Metropolitan Trams",
    "operator": "Yarra Trams",
    "public_transport": "stop_position",
    "railway": "tram_stop",
    "ref": "22",
    "tram": "yes",
    "wheelchair": "yes",
    "id": "node/2203970122"
  },
  "geometry": {
    "type": "Point",
    "coordinates": [
      144.9797316,
      -37.7704857
    ]
  }
},
{
  "type": "Feature",
  "id": "node/2203970247",
  "properties": {
    "name": "Stop 21: Glenlyon Road",
    "network": "PTV - Metropolitan Trams",
    "operator": "Yarra Trams",
    "public_transport": "stop_position",
    "railway": "tram_stop",
    "ref": "21",
    "tram": "yes",
    "wheelchair": "yes",
    "id": "node/2203970247"
  },
  "geometry": {
    "type": "Point",
    "coordinates": [
      144.9790964,
      -37.7740101
    ]
  }
},
{
  "type": "Feature",
  "id": "node/2203970248",
  "properties": {
    "name": "Stop 21: Glenlyon Road",
    "network": "PTV - Metropolitan Trams",
    "operator": "Yarra Trams",
    "public_transport": "stop_position",
    "railway": "tram_stop",
    "ref": "21",
    "tram": "yes",
    "wheelchair": "yes",
    "id": "node/2203970248"
  },
  "geometry": {
    "type": "Point",
    "coordinates": [
      144.9792609,
      -37.773272
    ]
  }
},
{
  "type": "Feature",
  "id": "node/2203970586",
  "properties": {
    "name": "Stop 20: Miller Street",
    "network": "PTV - Metropolitan Trams",
    "operator": "Yarra Trams",
    "public_transport": "stop_position",
    "railway": "tram_stop",
    "ref": "20",
    "tram": "yes",
    "wheelchair": "yes",
    "id": "node/2203970586"
  },
  "geometry": {
    "type": "Point",
    "coordinates": [
      144.9786463,
      -37.7766342
    ]
  }
},
{
  "type": "Feature",
  "id": "node/2203970587",
  "properties": {
    "name": "Stop 20: Miller Street",
    "network": "PTV - Metropolitan Trams",
    "operator": "Yarra Trams",
    "public_transport": "stop_position",
    "railway": "tram_stop",
    "ref": "20",
    "tram": "yes",
    "wheelchair": "yes",
    "id": "node/2203970587"
  },
  "geometry": {
    "type": "Point",
    "coordinates": [
      144.9786371,
      -37.7769244
    ]
  }
},
{
  "type": "Feature",
  "id": "node/2203970830",
  "properties": {
    "name": "Stop 19: Brunswick Road",
    "network": "PTV - Metropolitan Trams",
    "operator": "Yarra Trams",
    "public_transport": "stop_position",
    "railway": "tram_stop",
    "ref": "19",
    "tram": "yes",
    "wheelchair": "no",
    "id": "node/2203970830"
  },
  "geometry": {
    "type": "Point",
    "coordinates": [
      144.9782184,
      -37.7793297
    ]
  }
},
{
  "type": "Feature",
  "id": "node/2203970831",
  "properties": {
    "fixme": "check for correct name: \"Stop 19: Holden Street\" vs. \"Stop 19: Brunswick Road\"",
    "name": "Stop 19: Holden Street",
    "network": "PTV - Metropolitan Trams",
    "operator": "Yarra Trams",
    "public_transport": "stop_position",
    "railway": "tram_stop",
    "ref": "19",
    "tram": "yes",
    "id": "node/2203970831"
  },
  "geometry": {
    "type": "Point",
    "coordinates": [
      144.9781822,
      -37.7799178
    ]
  }
},
{
  "type": "Feature",
  "id": "node/2203992967",
  "properties": {
    "name": "Stop 13: Johnston Street",
    "network": "PTV - Metropolitan Trams",
    "operator": "Yarra Trams",
    "public_transport": "stop_position",
    "railway": "tram_stop",
    "ref": "13",
    "tram": "yes",
    "wheelchair": "yes",
    "id": "node/2203992967"
  },
  "geometry": {
    "type": "Point",
    "coordinates": [
      144.9748576,
      -37.7983657
    ]
  }
},
{
  "type": "Feature",
  "id": "node/2203992969",
  "properties": {
    "name": "Stop 13: Johnston Street",
    "network": "PTV - Metropolitan Trams",
    "operator": "Yarra Trams",
    "public_transport": "stop_position",
    "railway": "tram_stop",
    "ref": "13",
    "tram": "yes",
    "wheelchair": "yes",
    "id": "node/2203992969"
  },
  "geometry": {
    "type": "Point",
    "coordinates": [
      144.974903,
      -37.7975829
    ]
  }
},
{
  "type": "Feature",
  "id": "node/2203993230",
  "properties": {
    "fixme": "check for correct name: \"Stop 14: Kay Street\" vs. \"Stop 14: Rose Street\"",
    "name": "Stop 14: Kay Street",
    "network": "PTV - Metropolitan Trams",
    "operator": "Yarra Trams",
    "public_transport": "stop_position",
    "railway": "tram_stop",
    "ref": "14",
    "tram": "yes",
    "id": "node/2203993230"
  },
  "geometry": {
    "type": "Point",
    "coordinates": [
      144.9753721,
      -37.7948644
    ]
  }
},
{
  "type": "Feature",
  "id": "node/2203993231",
  "properties": {
    "name": "Stop 14: Rose Street",
    "network": "PTV - Metropolitan Trams",
    "operator": "Yarra Trams",
    "public_transport": "stop_position",
    "railway": "tram_stop",
    "ref": "14",
    "tram": "yes",
    "id": "node/2203993231"
  },
  "geometry": {
    "type": "Point",
    "coordinates": [
      144.9754072,
      -37.7951507
    ]
  }
},
{
  "type": "Feature",
  "id": "node/2203994162",
  "properties": {
    "name": "Stop 15: Alexandra Parade",
    "network": "PTV - Metropolitan Trams",
    "operator": "Yarra Trams",
    "public_transport": "stop_position",
    "railway": "tram_stop",
    "ref": "15",
    "tram": "yes",
    "id": "node/2203994162"
  },
  "geometry": {
    "type": "Point",
    "coordinates": [
      144.9759327,
      -37.7920498
    ]
  }
},
{
  "type": "Feature",
  "id": "node/2203994168",
  "properties": {
    "fixme": "check for correct name: \"Stop 16: Curtain Street\" vs. \"Stop 16: Freeman Street\"",
    "name": "Stop 16: Curtain Street",
    "network": "PTV - Metropolitan Trams",
    "operator": "Yarra Trams",
    "public_transport": "stop_position",
    "railway": "tram_stop",
    "ref": "16",
    "tram": "yes",
    "id": "node/2203994168"
  },
  "geometry": {
    "type": "Point",
    "coordinates": [
      144.9765461,
      -37.7885298
    ]
  }
},
{
  "type": "Feature",
  "id": "node/2203994169",
  "properties": {
    "name": "Stop 16: Freeman Street",
    "network": "PTV - Metropolitan Trams",
    "operator": "Yarra Trams",
    "public_transport": "stop_position",
    "railway": "tram_stop",
    "ref": "16",
    "tram": "yes",
    "wheelchair": "no",
    "id": "node/2203994169"
  },
  "geometry": {
    "type": "Point",
    "coordinates": [
      144.9765354,
      -37.7888036
    ]
  }
},
{
  "type": "Feature",
  "id": "node/2203994749",
  "properties": {
    "fixme": "check for correct name: \"Stop 17: Richardson Street\" vs. \"Stop 17: Reid Street\"",
    "name": "Stop 17: Richardson Street",
    "network": "PTV - Metropolitan Trams",
    "operator": "Yarra Trams",
    "public_transport": "stop_position",
    "railway": "tram_stop",
    "ref": "17",
    "tram": "yes",
    "id": "node/2203994749"
  },
  "geometry": {
    "type": "Point",
    "coordinates": [
      144.9771323,
      -37.7852785
    ]
  }
},
{
  "type": "Feature",
  "id": "node/2203994750",
  "properties": {
    "name": "Stop 17: Reid Street",
    "network": "PTV - Metropolitan Trams",
    "operator": "Yarra Trams",
    "public_transport": "stop_position",
    "railway": "tram_stop",
    "ref": "17",
    "tram": "yes",
    "id": "node/2203994750"
  },
  "geometry": {
    "type": "Point",
    "coordinates": [
      144.9771603,
      -37.7855725
    ]
  }
},
{
  "type": "Feature",
  "id": "node/2203995313",
  "properties": {
    "name": "Stop 18: Scotchmer Street",
    "network": "PTV - Metropolitan Trams",
    "operator": "Yarra Trams",
    "public_transport": "stop_position",
    "railway": "tram_stop",
    "ref": "18",
    "tram": "yes",
    "id": "node/2203995313"
  },
  "geometry": {
    "type": "Point",
    "coordinates": [
      144.9776232,
      -37.7830627
    ]
  }
},
{
  "type": "Feature",
  "id": "node/2203995317",
  "properties": {
    "fixme": "check for correct name: \"Stop 18: Pidgon Street\" vs. \"Stop 18: Scotchmer Street\"",
    "name": "Stop 18: Pidgon Street",
    "network": "PTV - Metropolitan Trams",
    "operator": "Yarra Trams",
    "public_transport": "stop_position",
    "railway": "tram_stop",
    "ref": "18",
    "tram": "yes",
    "id": "node/2203995317"
  },
  "geometry": {
    "type": "Point",
    "coordinates": [
      144.9775946,
      -37.7827725
    ]
  }
},
{
  "type": "Feature",
  "id": "node/2204169556",
  "properties": {
    "name": "Stop 34: Miller Street",
    "network": "PTV - Metropolitan Trams",
    "operator": "Yarra Trams",
    "public_transport": "stop_position",
    "railway": "tram_stop",
    "ref": "34",
    "tram": "yes",
    "id": "node/2204169556"
  },
  "geometry": {
    "type": "Point",
    "coordinates": [
      144.9948628,
      -37.7523694
    ]
  }
},
{
  "type": "Feature",
  "id": "node/2204310588",
  "properties": {
    "name": "Stop 25: Miller Street",
    "network": "PTV - Metropolitan Trams",
    "network:wikidata": "Q7257648",
    "operator": "Keolis Downer",
    "operator:wikidata": "Q6328065",
    "public_transport": "stop_position",
    "railway": "tram_stop",
    "ref": "25",
    "tram": "yes",
    "id": "node/2204310588"
  },
  "geometry": {
    "type": "Point",
    "coordinates": [
      144.9884943,
      -37.7779171
    ]
  }
},
{
  "type": "Feature",
  "id": "node/2204310593",
  "properties": {
    "name": "Stop 25: Miller Street",
    "network": "PTV - Metropolitan Trams",
    "network:wikidata": "Q7257648",
    "operator": "Keolis Downer",
    "operator:wikidata": "Q6328065",
    "public_transport": "stop_position",
    "railway": "tram_stop",
    "ref": "25",
    "tram": "yes",
    "id": "node/2204310593"
  },
  "geometry": {
    "type": "Point",
    "coordinates": [
      144.9883893,
      -37.7779847
    ]
  }
},
{
  "type": "Feature",
  "id": "node/2204318363",
  "properties": {
    "name": "Stop 24: Holden Street",
    "network": "PTV - Metropolitan Trams",
    "operator": "Yarra Trams",
    "public_transport": "stop_position",
    "railway": "tram_stop",
    "ref": "24",
    "tram": "yes",
    "id": "node/2204318363"
  },
  "geometry": {
    "type": "Point",
    "coordinates": [
      144.9868162,
      -37.7798638
    ]
  }
},
{
  "type": "Feature",
  "id": "node/2204318364",
  "properties": {
    "name": "Stop 24: Holden Street",
    "network": "PTV - Metropolitan Trams",
    "operator": "Yarra Trams",
    "public_transport": "stop_position",
    "railway": "tram_stop",
    "ref": "24",
    "tram": "yes",
    "id": "node/2204318364"
  },
  "geometry": {
    "type": "Point",
    "coordinates": [
      144.9865722,
      -37.780098
    ]
  }
},
{
  "type": "Feature",
  "id": "node/2204477288",
  "properties": {
    "name": "Stop 23: Park Street",
    "network": "PTV - Metropolitan Trams",
    "operator": "Yarra Trams",
    "public_transport": "stop_position",
    "railway": "tram_stop",
    "ref": "23",
    "tram": "yes",
    "id": "node/2204477288"
  },
  "geometry": {
    "type": "Point",
    "coordinates": [
      144.9852951,
      -37.7816313
    ]
  }
},
{
  "type": "Feature",
  "id": "node/2204477302",
  "properties": {
    "name": "Stop 23: Park Street",
    "network": "PTV - Metropolitan Trams",
    "operator": "Yarra Trams",
    "public_transport": "stop_position",
    "railway": "tram_stop",
    "ref": "23",
    "tram": "yes",
    "id": "node/2204477302"
  },
  "geometry": {
    "type": "Point",
    "coordinates": [
      144.9852666,
      -37.781616
    ]
  }
},
{
  "type": "Feature",
  "id": "node/2204478887",
  "properties": {
    "name": "Stop 22: Scotchmer Street",
    "network": "PTV - Metropolitan Trams",
    "operator": "Yarra Trams",
    "public_transport": "stop_position",
    "railway": "tram_stop",
    "ref": "22",
    "tram": "yes",
    "id": "node/2204478887"
  },
  "geometry": {
    "type": "Point",
    "coordinates": [
      144.9839508,
      -37.7831959
    ]
  }
},
{
  "type": "Feature",
  "id": "node/2204478889",
  "properties": {
    "name": "Stop 22: Scotchmer Street",
    "network": "PTV - Metropolitan Trams",
    "operator": "Yarra Trams",
    "public_transport": "stop_position",
    "railway": "tram_stop",
    "ref": "22",
    "tram": "yes",
    "id": "node/2204478889"
  },
  "geometry": {
    "type": "Point",
    "coordinates": [
      144.9837236,
      -37.783412
    ]
  }
},
{
  "type": "Feature",
  "id": "node/2204481179",
  "properties": {
    "name": "Stop 21: Alfred Crescent",
    "network": "PTV - Metropolitan Trams",
    "operator": "Yarra Trams",
    "public_transport": "stop_position",
    "railway": "tram_stop",
    "ref": "21",
    "tram": "yes",
    "id": "node/2204481179"
  },
  "geometry": {
    "type": "Point",
    "coordinates": [
      144.9819637,
      -37.7854603
    ]
  }
},
{
  "type": "Feature",
  "id": "node/2204481181",
  "properties": {
    "name": "Stop 21: Alfred Crescent",
    "network": "PTV - Metropolitan Trams",
    "operator": "Yarra Trams",
    "public_transport": "stop_position",
    "railway": "tram_stop",
    "ref": "21",
    "tram": "yes",
    "id": "node/2204481181"
  },
  "geometry": {
    "type": "Point",
    "coordinates": [
      144.982087,
      -37.7853653
    ]
  }
},
{
  "type": "Feature",
  "id": "node/2204668431",
  "properties": {
    "name": "Stop 20: Fitzroy Bowls Club",
    "network": "PTV - Metropolitan Trams",
    "operator": "Yarra Trams",
    "public_transport": "stop_position",
    "railway": "tram_stop",
    "ref": "20",
    "tram": "yes",
    "id": "node/2204668431"
  },
  "geometry": {
    "type": "Point",
    "coordinates": [
      144.9801573,
      -37.7883001
    ]
  }
},
{
  "type": "Feature",
  "id": "node/2204668432",
  "properties": {
    "name": "Stop 19: Newry Street",
    "network": "PTV - Metropolitan Trams",
    "operator": "Yarra Trams",
    "public_transport": "stop_position",
    "railway": "tram_stop",
    "ref": "19",
    "tram": "yes",
    "id": "node/2204668432"
  },
  "geometry": {
    "type": "Point",
    "coordinates": [
      144.9797315,
      -37.7908102
    ]
  }
},
{
  "type": "Feature",
  "id": "node/2204668433",
  "properties": {
    "name": "Stop 20: Fitzroy Bowls Club",
    "network": "PTV - Metropolitan Trams",
    "operator": "Yarra Trams",
    "public_transport": "stop_position",
    "railway": "tram_stop",
    "ref": "20",
    "tram": "yes",
    "id": "node/2204668433"
  },
  "geometry": {
    "type": "Point",
    "coordinates": [
      144.9802159,
      -37.7881603
    ]
  }
},
{
  "type": "Feature",
  "id": "node/2204668434",
  "properties": {
    "name": "Stop 19: Newry Street",
    "network": "PTV - Metropolitan Trams",
    "operator": "Yarra Trams",
    "public_transport": "stop_position",
    "railway": "tram_stop",
    "ref": "19",
    "tram": "yes",
    "id": "node/2204668434"
  },
  "geometry": {
    "type": "Point",
    "coordinates": [
      144.9798115,
      -37.7905463
    ]
  }
},
{
  "type": "Feature",
  "id": "node/2204668974",
  "properties": {
    "name": "Stop 18: Alexandra Parade",
    "network": "PTV - Metropolitan Trams",
    "operator": "Yarra Trams",
    "public_transport": "stop_position",
    "railway": "tram_stop",
    "ref": "18",
    "tram": "yes",
    "id": "node/2204668974"
  },
  "geometry": {
    "type": "Point",
    "coordinates": [
      144.9793975,
      -37.7929868
    ]
  }
},
{
  "type": "Feature",
  "id": "node/2204668978",
  "properties": {
    "name": "Stop 18: Alexandra Parade",
    "network": "PTV - Metropolitan Trams",
    "operator": "Yarra Trams",
    "public_transport": "stop_position",
    "railway": "tram_stop",
    "ref": "18",
    "tram": "yes",
    "id": "node/2204668978"
  },
  "geometry": {
    "type": "Point",
    "coordinates": [
      144.9792627,
      -37.7935733
    ]
  }
},
{
  "type": "Feature",
  "id": "node/2204670477",
  "properties": {
    "name": "Stop 17: Leicester Street",
    "network": "PTV - Metropolitan Trams",
    "operator": "Yarra Trams",
    "public_transport": "stop_position",
    "railway": "tram_stop",
    "ref": "17",
    "tram": "yes",
    "id": "node/2204670477"
  },
  "geometry": {
    "type": "Point",
    "coordinates": [
      144.9789142,
      -37.7956274
    ]
  }
},
{
  "type": "Feature",
  "id": "node/2204670481",
  "properties": {
    "name": "Stop 17: Leicester Street",
    "network": "PTV - Metropolitan Trams",
    "operator": "Yarra Trams",
    "public_transport": "stop_position",
    "railway": "tram_stop",
    "ref": "17",
    "tram": "yes",
    "id": "node/2204670481"
  },
  "geometry": {
    "type": "Point",
    "coordinates": [
      144.9789711,
      -37.7955
    ]
  }
},
{
  "type": "Feature",
  "id": "node/2204671848",
  "properties": {
    "name": "Stop 16: Johnston Street",
    "network": "PTV - Metropolitan Trams",
    "operator": "Yarra Trams",
    "public_transport": "stop_position",
    "railway": "tram_stop",
    "ref": "16",
    "tram": "yes",
    "id": "node/2204671848"
  },
  "geometry": {
    "type": "Point",
    "coordinates": [
      144.9785095,
      -37.7982204
    ]
  }
},
{
  "type": "Feature",
  "id": "node/2204671849",
  "properties": {
    "name": "Stop 16: Johnston Street",
    "network": "PTV - Metropolitan Trams",
    "operator": "Yarra Trams",
    "public_transport": "stop_position",
    "railway": "tram_stop",
    "ref": "16",
    "tram": "yes",
    "id": "node/2204671849"
  },
  "geometry": {
    "type": "Point",
    "coordinates": [
      144.9784353,
      -37.7984501
    ]
  }
},
{
  "type": "Feature",
  "id": "node/2204674008",
  "properties": {
    "name": "Stop 15: Bell Street",
    "network": "PTV - Metropolitan Trams",
    "operator": "Yarra Trams",
    "public_transport": "stop_position",
    "railway": "tram_stop",
    "ref": "15",
    "tram": "yes",
    "wheelchair": "no",
    "id": "node/2204674008"
  },
  "geometry": {
    "type": "Point",
    "coordinates": [
      144.9780971,
      -37.8004435
    ]
  }
},
{
  "type": "Feature",
  "id": "node/2204674009",
  "properties": {
    "name": "Stop 15: St David Street",
    "network": "PTV - Metropolitan Trams",
    "operator": "Yarra Trams",
    "public_transport": "stop_position",
    "railway": "tram_stop",
    "ref": "15",
    "tram": "yes",
    "wheelchair": "no",
    "id": "node/2204674009"
  },
  "geometry": {
    "type": "Point",
    "coordinates": [
      144.9781159,
      -37.8005417
    ]
  }
},
{
  "type": "Feature",
  "id": "node/2204676925",
  "properties": {
    "name": "Stop 14: King William Street",
    "network": "PTV - Metropolitan Trams",
    "operator": "Yarra Trams",
    "public_transport": "stop_position",
    "railway": "tram_stop",
    "ref": "14",
    "tram": "yes",
    "id": "node/2204676925"
  },
  "geometry": {
    "type": "Point",
    "coordinates": [
      144.9777473,
      -37.8027125
    ]
  }
},
{
  "type": "Feature",
  "id": "node/2204676933",
  "properties": {
    "name": "Stop 14: Hanover Street",
    "network": "PTV - Metropolitan Trams",
    "operator": "Yarra Trams",
    "public_transport": "stop_position",
    "railway": "tram_stop",
    "ref": "14",
    "tram": "yes",
    "id": "node/2204676933"
  },
  "geometry": {
    "type": "Point",
    "coordinates": [
      144.9776897,
      -37.8028446
    ]
  }
},
{
  "type": "Feature",
  "id": "node/2204678936",
  "properties": {
    "name": "Stop 13: Gertrude Street",
    "network": "PTV - Metropolitan Trams",
    "operator": "Yarra Trams",
    "public_transport": "stop_position",
    "railway": "tram_stop",
    "ref": "13",
    "tram": "yes",
    "id": "node/2204678936"
  },
  "geometry": {
    "type": "Point",
    "coordinates": [
      144.9771769,
      -37.8058601
    ]
  }
},
{
  "type": "Feature",
  "id": "node/2204678937",
  "properties": {
    "name": "Stop 13: Gertrude Street",
    "network": "PTV - Metropolitan Trams",
    "operator": "Yarra Trams",
    "public_transport": "stop_position",
    "railway": "tram_stop",
    "ref": "13",
    "tram": "yes",
    "id": "node/2204678937"
  },
  "geometry": {
    "type": "Point",
    "coordinates": [
      144.9772533,
      -37.805624
    ]
  }
},
{
  "type": "Feature",
  "id": "node/2205915122",
  "properties": {
    "bench": "no",
    "name": "Stop 114: Princes Street",
    "network": "PTV - Metropolitan Trams",
    "operator": "Yarra Trams",
    "public_transport": "stop_position",
    "railway": "tram_stop",
    "ref": "114",
    "shelter": "no",
    "tram": "yes",
    "wheelchair": "no",
    "id": "node/2205915122"
  },
  "geometry": {
    "type": "Point",
    "coordinates": [
      144.968427,
      -37.7921597
    ]
  }
},
{
  "type": "Feature",
  "id": "node/2205915123",
  "properties": {
    "bench": "no",
    "name": "Stop 114: Princes Street",
    "network": "PTV - Metropolitan Trams",
    "operator": "Yarra Trams",
    "public_transport": "stop_position",
    "railway": "tram_stop",
    "ref": "114",
    "shelter": "no",
    "tram": "yes",
    "wheelchair": "no",
    "id": "node/2205915123"
  },
  "geometry": {
    "type": "Point",
    "coordinates": [
      144.9683102,
      -37.7926223
    ]
  }
},
{
  "type": "Feature",
  "id": "node/2205917370",
  "properties": {
    "bench": "no",
    "name": "Stop 116: Fenwick Street",
    "network": "PTV - Metropolitan Trams",
    "operator": "Yarra Trams",
    "public_transport": "stop_position",
    "railway": "tram_stop",
    "ref": "116",
    "shelter": "no",
    "tram": "yes",
    "wheelchair": "no",
    "id": "node/2205917370"
  },
  "geometry": {
    "type": "Point",
    "coordinates": [
      144.9692163,
      -37.7873806
    ]
  }
},
{
  "type": "Feature",
  "id": "node/2205917378",
  "properties": {
    "bench": "no",
    "name": "Stop 116: Fenwick Street",
    "network": "PTV - Metropolitan Trams",
    "operator": "Yarra Trams",
    "public_transport": "stop_position",
    "railway": "tram_stop",
    "ref": "116",
    "shelter": "no",
    "tram": "yes",
    "wheelchair": "no",
    "id": "node/2205917378"
  },
  "geometry": {
    "type": "Point",
    "coordinates": [
      144.9692929,
      -37.7871633
    ]
  }
},
{
  "type": "Feature",
  "id": "node/2205918986",
  "properties": {
    "bench": "no",
    "name": "Stop 118: Pigdon Street",
    "network": "PTV - Metropolitan Trams",
    "operator": "Yarra Trams",
    "public_transport": "stop_position",
    "railway": "tram_stop",
    "ref": "118",
    "shelter": "no",
    "tram": "yes",
    "wheelchair": "no",
    "id": "node/2205918986"
  },
  "geometry": {
    "type": "Point",
    "coordinates": [
      144.9701019,
      -37.7819154
    ]
  }
},
{
  "type": "Feature",
  "id": "node/2205918987",
  "properties": {
    "bench": "no",
    "name": "Stop 118: Pigdon Street",
    "network": "PTV - Metropolitan Trams",
    "operator": "Yarra Trams",
    "public_transport": "stop_position",
    "railway": "tram_stop",
    "ref": "118",
    "shelter": "no",
    "tram": "yes",
    "wheelchair": "no",
    "id": "node/2205918987"
  },
  "geometry": {
    "type": "Point",
    "coordinates": [
      144.9702035,
      -37.7815314
    ]
  }
},
{
  "type": "Feature",
  "id": "node/2205919585",
  "properties": {
    "name": "Stop 119: Park Street",
    "network": "PTV - Metropolitan Trams",
    "operator": "Yarra Trams",
    "public_transport": "stop_position",
    "railway": "tram_stop",
    "ref": "119",
    "tram": "yes",
    "id": "node/2205919585"
  },
  "geometry": {
    "type": "Point",
    "coordinates": [
      144.9704954,
      -37.7794205
    ]
  }
},
{
  "type": "Feature",
  "id": "node/2205919586",
  "properties": {
    "name": "Stop 119: Park Street",
    "network": "PTV - Metropolitan Trams",
    "operator": "Yarra Trams",
    "public_transport": "stop_position",
    "railway": "tram_stop",
    "ref": "119",
    "tram": "yes",
    "id": "node/2205919586"
  },
  "geometry": {
    "type": "Point",
    "coordinates": [
      144.9704737,
      -37.7798375
    ]
  }
},
{
  "type": "Feature",
  "id": "node/2205919680",
  "properties": {
    "bench": "no",
    "name": "Stop 120: Brunswick Road",
    "network": "PTV - Metropolitan Trams",
    "operator": "Yarra Trams",
    "public_transport": "stop_position",
    "railway": "tram_stop",
    "ref": "120",
    "shelter": "no",
    "tram": "yes",
    "wheelchair": "no",
    "id": "node/2205919680"
  },
  "geometry": {
    "type": "Point",
    "coordinates": [
      144.9707422,
      -37.7781225
    ]
  }
},
{
  "type": "Feature",
  "id": "node/2205927402",
  "properties": {
    "bench": "no",
    "name": "Stop 115: Melbourne Cemetery East, Newry Street",
    "network": "PTV - Metropolitan Trams",
    "operator": "Yarra Trams",
    "public_transport": "stop_position",
    "railway": "tram_stop",
    "ref": "115",
    "shelter": "no",
    "tram": "yes",
    "wheelchair": "no",
    "id": "node/2205927402"
  },
  "geometry": {
    "type": "Point",
    "coordinates": [
      144.9688341,
      -37.7895698
    ]
  }
},
{
  "type": "Feature",
  "id": "node/2205927403",
  "properties": {
    "bench": "no",
    "name": "Stop 115: Melbourne Cemetery East, Newry Street",
    "network": "PTV - Metropolitan Trams",
    "operator": "Yarra Trams",
    "public_transport": "stop_position",
    "railway": "tram_stop",
    "ref": "115",
    "shelter": "no",
    "tram": "yes",
    "wheelchair": "no",
    "id": "node/2205927403"
  },
  "geometry": {
    "type": "Point",
    "coordinates": [
      144.9689213,
      -37.7892887
    ]
  }
},
{
  "type": "Feature",
  "id": "node/2207661036",
  "properties": {
    "name": "Stop 14: Queensberry Street",
    "network": "PTV - Metropolitan Trams",
    "operator": "Yarra Trams",
    "public_transport": "stop_position",
    "railway": "tram_stop",
    "ref": "14",
    "tram": "yes",
    "id": "node/2207661036"
  },
  "geometry": {
    "type": "Point",
    "coordinates": [
      144.9456051,
      -37.8023613
    ]
  }
},
{
  "type": "Feature",
  "id": "node/2207974388",
  "properties": {
    "name": "Stop 14: Abbotsford Street",
    "network": "PTV - Metropolitan Trams",
    "operator": "Yarra Trams",
    "public_transport": "stop_position",
    "railway": "tram_stop",
    "ref": "14",
    "tram": "yes",
    "id": "node/2207974388"
  },
  "geometry": {
    "type": "Point",
    "coordinates": [
      144.9457169,
      -37.8026318
    ]
  }
},
{
  "type": "Feature",
  "id": "node/2207974390",
  "properties": {
    "name": "Stop 12: North Melbourne Town Hall",
    "network": "PTV - Metropolitan Trams",
    "operator": "Yarra Trams",
    "public_transport": "stop_position",
    "railway": "tram_stop",
    "ref": "12",
    "tram": "yes",
    "id": "node/2207974390"
  },
  "geometry": {
    "type": "Point",
    "coordinates": [
      144.9494241,
      -37.8030211
    ]
  }
},
{
  "type": "Feature",
  "id": "node/2208009242",
  "properties": {
    "name": "Stop 19: Abbotsford Street Interchange",
    "network": "PTV - Metropolitan Trams",
    "operator": "Yarra Trams",
    "public_transport": "stop_position",
    "railway": "tram_stop",
    "ref": "19",
    "tram": "yes",
    "id": "node/2208009242"
  },
  "geometry": {
    "type": "Point",
    "coordinates": [
      144.9471813,
      -37.7937496
    ]
  }
},
{
  "type": "Feature",
  "id": "node/2208010231",
  "properties": {
    "name": "Stop 20: Melrose Street",
    "network": "PTV - Metropolitan Trams",
    "operator": "Yarra Trams",
    "public_transport": "stop_position",
    "railway": "tram_stop",
    "ref": "20",
    "tram": "yes",
    "id": "node/2208010231"
  },
  "geometry": {
    "type": "Point",
    "coordinates": [
      144.9434781,
      -37.7904574
    ]
  }
},
{
  "type": "Feature",
  "id": "node/2208010232",
  "properties": {
    "name": "Stop 20: Melrose Street",
    "network": "PTV - Metropolitan Trams",
    "operator": "Yarra Trams",
    "public_transport": "stop_position",
    "railway": "tram_stop",
    "ref": "20",
    "tram": "yes",
    "id": "node/2208010232"
  },
  "geometry": {
    "type": "Point",
    "coordinates": [
      144.9435167,
      -37.7904412
    ]
  }
},
{
  "type": "Feature",
  "id": "node/2208010898",
  "properties": {
    "name": "Stop 22: Boundary Road",
    "network": "PTV - Metropolitan Trams",
    "operator": "Yarra Trams",
    "public_transport": "stop_position",
    "railway": "tram_stop",
    "ref": "22",
    "tram": "yes",
    "id": "node/2208010898"
  },
  "geometry": {
    "type": "Point",
    "coordinates": [
      144.9401632,
      -37.7892075
    ]
  }
},
{
  "type": "Feature",
  "id": "node/2208013594",
  "properties": {
    "name": "Stop 18: Chapman Street",
    "network": "PTV - Metropolitan Trams",
    "operator": "Yarra Trams",
    "public_transport": "stop_position",
    "railway": "tram_stop",
    "ref": "18",
    "tram": "yes",
    "id": "node/2208013594"
  },
  "geometry": {
    "type": "Point",
    "coordinates": [
      144.9469114,
      -37.7949493
    ]
  }
},
{
  "type": "Feature",
  "id": "node/2208013599",
  "properties": {
    "name": "Stop 18: Erskine Street",
    "network": "PTV - Metropolitan Trams",
    "operator": "Yarra Trams",
    "public_transport": "stop_position",
    "railway": "tram_stop",
    "ref": "18",
    "tram": "yes",
    "id": "node/2208013599"
  },
  "geometry": {
    "type": "Point",
    "coordinates": [
      144.946827,
      -37.7952274
    ]
  }
},
{
  "type": "Feature",
  "id": "node/2208028871",
  "properties": {
    "name": "Stop 13: Curzon Street",
    "network": "PTV - Metropolitan Trams",
    "operator": "Yarra Trams",
    "public_transport": "stop_position",
    "railway": "tram_stop",
    "ref": "13",
    "tram": "yes",
    "id": "node/2208028871"
  },
  "geometry": {
    "type": "Point",
    "coordinates": [
      144.9483524,
      -37.8029258
    ]
  }
},
{
  "type": "Feature",
  "id": "node/2208028874",
  "properties": {
    "name": "Stop 13: Curzon Street",
    "network": "PTV - Metropolitan Trams",
    "operator": "Yarra Trams",
    "public_transport": "stop_position",
    "railway": "tram_stop",
    "ref": "13",
    "tram": "yes",
    "id": "node/2208028874"
  },
  "geometry": {
    "type": "Point",
    "coordinates": [
      144.9479455,
      -37.8028473
    ]
  }
},
{
  "type": "Feature",
  "id": "node/2208037336",
  "properties": {
    "name": "Stop 10: Chetwynd Street",
    "network": "PTV - Metropolitan Trams",
    "operator": "Yarra Trams",
    "public_transport": "stop_position",
    "railway": "tram_stop",
    "ref": "10",
    "tram": "yes",
    "id": "node/2208037336"
  },
  "geometry": {
    "type": "Point",
    "coordinates": [
      144.952001,
      -37.8054244
    ]
  }
},
{
  "type": "Feature",
  "id": "node/2208037340",
  "properties": {
    "name": "Stop 10: Chetwynd Street",
    "network": "PTV - Metropolitan Trams",
    "operator": "Yarra Trams",
    "public_transport": "stop_position",
    "railway": "tram_stop",
    "ref": "10",
    "tram": "yes",
    "id": "node/2208037340"
  },
  "geometry": {
    "type": "Point",
    "coordinates": [
      144.9524163,
      -37.8055014
    ]
  }
},
{
  "type": "Feature",
  "id": "node/2209383511",
  "properties": {
    "name": "Stop 17: Ievers Street",
    "network": "PTV - Metropolitan Trams",
    "network:wikidata": "Q7257648",
    "operator": "Keolis Downer",
    "operator:wikidata": "Q6328065",
    "public_transport": "stop_position",
    "railway": "tram_stop",
    "ref": "17",
    "tram": "yes",
    "id": "node/2209383511"
  },
  "geometry": {
    "type": "Point",
    "coordinates": [
      144.9597914,
      -37.7817024
    ]
  }
},
{
  "type": "Feature",
  "id": "node/2209663379",
  "properties": {
    "name": "Stop 10: Royal Melbourne Hospital",
    "network": "PTV - Metropolitan Trams",
    "network:wikidata": "Q7257648",
    "operator": "Keolis Downer",
    "operator:wikidata": "Q6328065",
    "public_transport": "stop_position",
    "railway": "tram_stop",
    "ref": "10",
    "route_ref": "19",
    "tram": "yes",
    "id": "node/2209663379"
  },
  "geometry": {
    "type": "Point",
    "coordinates": [
      144.9575199,
      -37.7998752
    ]
  }
},
{
  "type": "Feature",
  "id": "node/2209663380",
  "properties": {
    "name": "Stop 10: Royal Melbourne Hospital",
    "network": "PTV - Metropolitan Trams",
    "network:wikidata": "Q7257648",
    "operator": "Keolis Downer",
    "operator:wikidata": "Q6328065",
    "public_transport": "stop_position",
    "railway": "tram_stop",
    "ref": "10",
    "route_ref": "19",
    "tram": "yes",
    "id": "node/2209663380"
  },
  "geometry": {
    "type": "Point",
    "coordinates": [
      144.9575955,
      -37.7995592
    ]
  }
},
{
  "type": "Feature",
  "id": "node/2209663663",
  "properties": {
    "name": "Stop 11: University of Melbourne",
    "network": "PTV - Metropolitan Trams",
    "network:wikidata": "Q7257648",
    "operator": "Keolis Downer",
    "operator:wikidata": "Q6328065",
    "public_transport": "stop_position",
    "railway": "tram_stop",
    "ref": "11",
    "route_ref": "19",
    "tram": "yes",
    "id": "node/2209663663"
  },
  "geometry": {
    "type": "Point",
    "coordinates": [
      144.9577782,
      -37.7980693
    ]
  }
},
{
  "type": "Feature",
  "id": "node/2209663664",
  "properties": {
    "name": "Stop 11: University of Melbourne",
    "network": "PTV - Metropolitan Trams",
    "network:wikidata": "Q7257648",
    "operator": "Keolis Downer",
    "operator:wikidata": "Q6328065",
    "public_transport": "stop_position",
    "railway": "tram_stop",
    "ref": "11",
    "route_ref": "19",
    "tram": "yes",
    "id": "node/2209663664"
  },
  "geometry": {
    "type": "Point",
    "coordinates": [
      144.9577137,
      -37.7983034
    ]
  }
},
{
  "type": "Feature",
  "id": "node/2209664918",
  "properties": {
    "name": "Stop 12: Morrah Street",
    "network": "PTV - Metropolitan Trams",
    "network:wikidata": "Q7257648",
    "operator": "Keolis Downer",
    "operator:wikidata": "Q6328065",
    "public_transport": "stop_position",
    "railway": "tram_stop",
    "ref": "12",
    "route_ref": "19",
    "tram": "yes",
    "id": "node/2209664918"
  },
  "geometry": {
    "type": "Point",
    "coordinates": [
      144.9580389,
      -37.7956428
    ]
  }
},
{
  "type": "Feature",
  "id": "node/2209664919",
  "properties": {
    "name": "Stop 12: Morrah Street",
    "network": "PTV - Metropolitan Trams",
    "network:wikidata": "Q7257648",
    "operator": "Keolis Downer",
    "operator:wikidata": "Q6328065",
    "public_transport": "stop_position",
    "railway": "tram_stop",
    "ref": "12",
    "route_ref": "19",
    "tram": "yes",
    "id": "node/2209664919"
  },
  "geometry": {
    "type": "Point",
    "coordinates": [
      144.9580922,
      -37.7955088
    ]
  }
},
{
  "type": "Feature",
  "id": "node/2209665258",
  "properties": {
    "name": "Stop 13: Gatehouse Street",
    "network": "PTV - Metropolitan Trams",
    "network:wikidata": "Q7257648",
    "operator": "Keolis Downer",
    "operator:wikidata": "Q6328065",
    "public_transport": "stop_position",
    "railway": "tram_stop",
    "ref": "13",
    "route_ref": "19",
    "tram": "yes",
    "id": "node/2209665258"
  },
  "geometry": {
    "type": "Point",
    "coordinates": [
      144.9584713,
      -37.7924165
    ]
  }
},
{
  "type": "Feature",
  "id": "node/2209665265",
  "properties": {
    "name": "Stop 13: Gatehouse Street",
    "network": "PTV - Metropolitan Trams",
    "network:wikidata": "Q7257648",
    "operator": "Keolis Downer",
    "operator:wikidata": "Q6328065",
    "public_transport": "stop_position",
    "railway": "tram_stop",
    "ref": "13",
    "route_ref": "19",
    "tram": "yes",
    "id": "node/2209665265"
  },
  "geometry": {
    "type": "Point",
    "coordinates": [
      144.9583987,
      -37.792709
    ]
  }
},
{
  "type": "Feature",
  "id": "node/2209665394",
  "properties": {
    "name": "Stop 14: Cemetery Road West",
    "network": "PTV - Metropolitan Trams",
    "network:wikidata": "Q7257648",
    "operator": "Keolis Downer",
    "operator:wikidata": "Q6328065",
    "public_transport": "stop_position",
    "railway": "tram_stop",
    "ref": "14",
    "route_ref": "19",
    "tram": "yes",
    "id": "node/2209665394"
  },
  "geometry": {
    "type": "Point",
    "coordinates": [
      144.9588022,
      -37.7897183
    ]
  }
},
{
  "type": "Feature",
  "id": "node/2209665395",
  "properties": {
    "name": "Stop 14: Macarthur Road",
    "network": "PTV - Metropolitan Trams",
    "network:wikidata": "Q7257648",
    "operator": "Keolis Downer",
    "operator:wikidata": "Q6328065",
    "public_transport": "stop_position",
    "railway": "tram_stop",
    "ref": "14",
    "route_ref": "19",
    "tram": "yes",
    "id": "node/2209665395"
  },
  "geometry": {
    "type": "Point",
    "coordinates": [
      144.9587253,
      -37.7900446
    ]
  }
},
{
  "type": "Feature",
  "id": "node/2209665985",
  "properties": {
    "name": "Stop 16: Walker Street",
    "network": "PTV - Metropolitan Trams",
    "network:wikidata": "Q7257648",
    "operator": "Keolis Downer",
    "operator:wikidata": "Q6328065",
    "public_transport": "stop_position",
    "railway": "tram_stop",
    "ref": "16",
    "tram": "yes",
    "id": "node/2209665985"
  },
  "geometry": {
    "type": "Point",
    "coordinates": [
      144.9593617,
      -37.7848536
    ]
  }
},
{
  "type": "Feature",
  "id": "node/2209665986",
  "properties": {
    "name": "Stop 15: Leonard Street",
    "network": "PTV - Metropolitan Trams",
    "network:wikidata": "Q7257648",
    "operator": "Keolis Downer",
    "operator:wikidata": "Q6328065",
    "public_transport": "stop_position",
    "railway": "tram_stop",
    "ref": "15",
    "route_ref": "19",
    "tram": "yes",
    "id": "node/2209665986"
  },
  "geometry": {
    "type": "Point",
    "coordinates": [
      144.9590666,
      -37.7875618
    ]
  }
},
{
  "type": "Feature",
  "id": "node/2209665987",
  "properties": {
    "name": "Stop 16: Walker Street",
    "network": "PTV - Metropolitan Trams",
    "network:wikidata": "Q7257648",
    "operator": "Keolis Downer",
    "operator:wikidata": "Q6328065",
    "public_transport": "stop_position",
    "railway": "tram_stop",
    "ref": "16",
    "tram": "yes",
    "id": "node/2209665987"
  },
  "geometry": {
    "type": "Point",
    "coordinates": [
      144.9594357,
      -37.7845544
    ]
  }
},
{
  "type": "Feature",
  "id": "node/2209665988",
  "properties": {
    "name": "Stop 15: Leonard Street",
    "network": "PTV - Metropolitan Trams",
    "network:wikidata": "Q7257648",
    "operator": "Keolis Downer",
    "operator:wikidata": "Q6328065",
    "public_transport": "stop_position",
    "railway": "tram_stop",
    "ref": "15",
    "route_ref": "19",
    "tram": "yes",
    "id": "node/2209665988"
  },
  "geometry": {
    "type": "Point",
    "coordinates": [
      144.9589886,
      -37.7879085
    ]
  }
},
{
  "type": "Feature",
  "id": "node/2209666937",
  "properties": {
    "name": "Stop 17: Ievers Street",
    "network": "PTV - Metropolitan Trams",
    "network:wikidata": "Q7257648",
    "operator": "Keolis Downer",
    "operator:wikidata": "Q6328065",
    "public_transport": "stop_position",
    "railway": "tram_stop",
    "ref": "17",
    "tram": "yes",
    "id": "node/2209666937"
  },
  "geometry": {
    "type": "Point",
    "coordinates": [
      144.9597338,
      -37.7818688
    ]
  }
},
{
  "type": "Feature",
  "id": "node/2209673134",
  "properties": {
    "name": "Stop 19: Brunswick Road",
    "network": "PTV - Metropolitan Trams",
    "network:wikidata": "Q7257648",
    "operator": "Keolis Downer",
    "operator:wikidata": "Q6328065",
    "public_transport": "stop_position",
    "railway": "tram_stop",
    "ref": "19",
    "tram": "yes",
    "id": "node/2209673134"
  },
  "geometry": {
    "type": "Point",
    "coordinates": [
      144.9603953,
      -37.7772289
    ]
  }
},
{
  "type": "Feature",
  "id": "node/2209673141",
  "properties": {
    "name": "Stop 19: Brunswick Road",
    "network": "PTV - Metropolitan Trams",
    "network:wikidata": "Q7257648",
    "operator": "Keolis Downer",
    "operator:wikidata": "Q6328065",
    "public_transport": "stop_position",
    "railway": "tram_stop",
    "ref": "19",
    "tram": "yes",
    "id": "node/2209673141"
  },
  "geometry": {
    "type": "Point",
    "coordinates": [
      144.96033,
      -37.7776728
    ]
  }
},
{
  "type": "Feature",
  "id": "node/2209691355",
  "properties": {
    "name": "Stop 8: Peel Street",
    "network": "PTV - Metropolitan Trams",
    "operator": "Yarra Trams",
    "public_transport": "stop_position",
    "railway": "tram_stop",
    "ref": "8",
    "tram": "yes",
    "wheelchair": "no",
    "id": "node/2209691355"
  },
  "geometry": {
    "type": "Point",
    "coordinates": [
      144.9557286,
      -37.8058382
    ]
  }
},
{
  "type": "Feature",
  "id": "node/2209691357",
  "properties": {
    "name": "Stop 8: Peel Street",
    "network": "PTV - Metropolitan Trams",
    "operator": "Yarra Trams",
    "public_transport": "stop_position",
    "railway": "tram_stop",
    "ref": "8",
    "tram": "yes",
    "wheelchair": "no",
    "id": "node/2209691357"
  },
  "geometry": {
    "type": "Point",
    "coordinates": [
      144.9562145,
      -37.8059228
    ]
  }
},
{
  "type": "Feature",
  "id": "node/2209691362",
  "properties": {
    "name": "Stop 9: William Street",
    "network": "PTV - Metropolitan Trams",
    "operator": "Yarra Trams",
    "public_transport": "stop_position",
    "railway": "tram_stop",
    "ref": "9",
    "tram": "yes",
    "id": "node/2209691362"
  },
  "geometry": {
    "type": "Point",
    "coordinates": [
      144.9539287,
      -37.8056692
    ]
  }
},
{
  "type": "Feature",
  "id": "node/2209691364",
  "properties": {
    "name": "Stop 9: Howard Street",
    "network": "PTV - Metropolitan Trams",
    "operator": "Yarra Trams",
    "public_transport": "stop_position",
    "railway": "tram_stop",
    "ref": "9",
    "tram": "yes",
    "id": "node/2209691364"
  },
  "geometry": {
    "type": "Point",
    "coordinates": [
      144.9534868,
      -37.8055893
    ]
  }
},
{
  "type": "Feature",
  "id": "node/2209698841",
  "properties": {
    "name": "Stop 12: Flemington Road",
    "network": "PTV - Metropolitan Trams",
    "network:wikidata": "Q7257648",
    "operator": "Keolis Downer",
    "operator:wikidata": "Q6328065",
    "public_transport": "stop_position",
    "railway": "tram_stop",
    "ref": "12",
    "route_ref": "58",
    "tram": "yes",
    "wheelchair": "no",
    "id": "node/2209698841"
  },
  "geometry": {
    "type": "Point",
    "coordinates": [
      144.9567638,
      -37.801568
    ]
  }
},
{
  "type": "Feature",
  "id": "node/2209698842",
  "properties": {
    "name": "Stop 12: Flemington Road",
    "network": "PTV - Metropolitan Trams",
    "network:wikidata": "Q7257648",
    "operator": "Keolis Downer",
    "operator:wikidata": "Q6328065",
    "public_transport": "stop_position",
    "railway": "tram_stop",
    "ref": "12",
    "route_ref": "58",
    "tram": "yes",
    "wheelchair": "no",
    "id": "node/2209698842"
  },
  "geometry": {
    "type": "Point",
    "coordinates": [
      144.9567579,
      -37.8013938
    ]
  }
},
{
  "type": "Feature",
  "id": "node/2210591387",
  "properties": {
    "name": "Stop 36: Bracken Avenue",
    "network": "PTV - Metropolitan Trams",
    "operator": "Yarra Trams",
    "public_transport": "stop_position",
    "railway": "tram_stop",
    "ref": "36",
    "tram": "yes",
    "wheelchair": "no",
    "id": "node/2210591387"
  },
  "geometry": {
    "type": "Point",
    "coordinates": [
      144.9912988,
      -37.7513778
    ]
  }
},
{
  "type": "Feature",
  "id": "node/2210591388",
  "properties": {
    "name": "Stop 36: Devon Street",
    "network": "PTV - Metropolitan Trams",
    "operator": "Yarra Trams",
    "public_transport": "stop_position",
    "railway": "tram_stop",
    "ref": "36",
    "tram": "yes",
    "id": "node/2210591388"
  },
  "geometry": {
    "type": "Point",
    "coordinates": [
      144.991008,
      -37.7513229
    ]
  }
},
{
  "type": "Feature",
  "id": "node/2210591711",
  "properties": {
    "name": "Stop 37: Miller Street",
    "network": "PTV - Metropolitan Trams",
    "operator": "Yarra Trams",
    "public_transport": "stop_position",
    "railway": "tram_stop",
    "ref": "37",
    "tram": "yes",
    "id": "node/2210591711"
  },
  "geometry": {
    "type": "Point",
    "coordinates": [
      144.9881034,
      -37.7502811
    ]
  }
},
{
  "type": "Feature",
  "id": "node/2210591712",
  "properties": {
    "name": "Stop 37: Miller Street",
    "network": "PTV - Metropolitan Trams",
    "operator": "Yarra Trams",
    "public_transport": "stop_position",
    "railway": "tram_stop",
    "ref": "37",
    "tram": "yes",
    "id": "node/2210591712"
  },
  "geometry": {
    "type": "Point",
    "coordinates": [
      144.9880885,
      -37.7505741
    ]
  }
},
{
  "type": "Feature",
  "id": "node/2210594599",
  "properties": {
    "name": "Stop 39: Latona Avenue",
    "network": "PTV - Metropolitan Trams",
    "operator": "Yarra Trams",
    "public_transport": "stop_position",
    "railway": "tram_stop",
    "ref": "39",
    "tram": "yes",
    "wheelchair": "no",
    "id": "node/2210594599"
  },
  "geometry": {
    "type": "Point",
    "coordinates": [
      144.9889021,
      -37.7455969
    ]
  }
},
{
  "type": "Feature",
  "id": "node/2210594604",
  "properties": {
    "name": "Stop 38: Oakover Road",
    "network": "PTV - Metropolitan Trams",
    "operator": "Yarra Trams",
    "public_transport": "stop_position",
    "railway": "tram_stop",
    "ref": "38",
    "tram": "yes",
    "id": "node/2210594604"
  },
  "geometry": {
    "type": "Point",
    "coordinates": [
      144.9884064,
      -37.7484195
    ]
  }
},
{
  "type": "Feature",
  "id": "node/2210594610",
  "properties": {
    "name": "Stop 38: Oakover Road",
    "network": "PTV - Metropolitan Trams",
    "operator": "Yarra Trams",
    "public_transport": "stop_position",
    "railway": "tram_stop",
    "ref": "38",
    "tram": "yes",
    "wheelchair": "no",
    "id": "node/2210594610"
  },
  "geometry": {
    "type": "Point",
    "coordinates": [
      144.9884587,
      -37.748279
    ]
  }
},
{
  "type": "Feature",
  "id": "node/2210596192",
  "properties": {
    "name": "Stop 39: Latona Avenue",
    "network": "PTV - Metropolitan Trams",
    "operator": "Yarra Trams",
    "public_transport": "stop_position",
    "railway": "tram_stop",
    "ref": "39",
    "tram": "yes",
    "wheelchair": "no",
    "id": "node/2210596192"
  },
  "geometry": {
    "type": "Point",
    "coordinates": [
      144.9888575,
      -37.7456575
    ]
  }
},
{
  "type": "Feature",
  "id": "node/2210602877",
  "properties": {
    "name": "Stop 40: Bell Street",
    "network": "PTV - Metropolitan Trams",
    "operator": "Yarra Trams",
    "public_transport": "stop_position",
    "railway": "tram_stop",
    "ref": "40",
    "tram": "yes",
    "wheelchair": "no",
    "id": "node/2210602877"
  },
  "geometry": {
    "type": "Point",
    "coordinates": [
      144.9891268,
      -37.7440067
    ]
  }
},
{
  "type": "Feature",
  "id": "node/2210602881",
  "properties": {
    "name": "Stop 40: Bell Street",
    "network": "PTV - Metropolitan Trams",
    "operator": "Yarra Trams",
    "public_transport": "stop_position",
    "railway": "tram_stop",
    "ref": "40",
    "tram": "yes",
    "id": "node/2210602881"
  },
  "geometry": {
    "type": "Point",
    "coordinates": [
      144.9892325,
      -37.7436001
    ]
  }
},
{
  "type": "Feature",
  "id": "node/2210603145",
  "properties": {
    "name": "Stop 41: Bruce Street",
    "network": "PTV - Metropolitan Trams",
    "operator": "Yarra Trams",
    "public_transport": "stop_position",
    "railway": "tram_stop",
    "ref": "41",
    "tram": "yes",
    "id": "node/2210603145"
  },
  "geometry": {
    "type": "Point",
    "coordinates": [
      144.9896419,
      -37.7409888
    ]
  }
},
{
  "type": "Feature",
  "id": "node/2210603146",
  "properties": {
    "name": "Stop 41: Bruce Street",
    "network": "PTV - Metropolitan Trams",
    "operator": "Yarra Trams",
    "public_transport": "stop_position",
    "railway": "tram_stop",
    "ref": "41",
    "tram": "yes",
    "id": "node/2210603146"
  },
  "geometry": {
    "type": "Point",
    "coordinates": [
      144.9895497,
      -37.7413394
    ]
  }
},
{
  "type": "Feature",
  "id": "node/2210603266",
  "properties": {
    "name": "Stop 42: Cramer Street",
    "network": "PTV - Metropolitan Trams",
    "operator": "Yarra Trams",
    "public_transport": "stop_position",
    "railway": "tram_stop",
    "ref": "42",
    "tram": "yes",
    "id": "node/2210603266"
  },
  "geometry": {
    "type": "Point",
    "coordinates": [
      144.9898949,
      -37.7391376
    ]
  }
},
{
  "type": "Feature",
  "id": "node/2210603267",
  "properties": {
    "name": "Stop 42: Cramer Street",
    "network": "PTV - Metropolitan Trams",
    "operator": "Yarra Trams",
    "public_transport": "stop_position",
    "railway": "tram_stop",
    "ref": "42",
    "tram": "yes",
    "id": "node/2210603267"
  },
  "geometry": {
    "type": "Point",
    "coordinates": [
      144.9899705,
      -37.738893
    ]
  }
},
{
  "type": "Feature",
  "id": "node/2210603272",
  "properties": {
    "name": "Stop 43: Murray Road",
    "network": "PTV - Metropolitan Trams",
    "operator": "Yarra Trams",
    "public_transport": "stop_position",
    "railway": "tram_stop",
    "ref": "43",
    "tram": "yes",
    "id": "node/2210603272"
  },
  "geometry": {
    "type": "Point",
    "coordinates": [
      144.9902732,
      -37.7367246
    ]
  }
},
{
  "type": "Feature",
  "id": "node/2210603708",
  "properties": {
    "name": "Stop 43: Murray Road",
    "network": "PTV - Metropolitan Trams",
    "operator": "Yarra Trams",
    "public_transport": "stop_position",
    "railway": "tram_stop",
    "ref": "43",
    "tram": "yes",
    "id": "node/2210603708"
  },
  "geometry": {
    "type": "Point",
    "coordinates": [
      144.9903467,
      -37.7364987
    ]
  }
},
{
  "type": "Feature",
  "id": "node/2210603989",
  "properties": {
    "name": "Stop 44: Cooper Street",
    "network": "PTV - Metropolitan Trams",
    "operator": "Yarra Trams",
    "public_transport": "stop_position",
    "railway": "tram_stop",
    "ref": "44",
    "tram": "yes",
    "id": "node/2210603989"
  },
  "geometry": {
    "type": "Point",
    "coordinates": [
      144.9906749,
      -37.734577
    ]
  }
},
{
  "type": "Feature",
  "id": "node/2210603990",
  "properties": {
    "name": "Stop 44: Cooper Street",
    "network": "PTV - Metropolitan Trams",
    "operator": "Yarra Trams",
    "public_transport": "stop_position",
    "railway": "tram_stop",
    "ref": "44",
    "tram": "yes",
    "id": "node/2210603990"
  },
  "geometry": {
    "type": "Point",
    "coordinates": [
      144.9906438,
      -37.734551
    ]
  }
},
{
  "type": "Feature",
  "id": "node/2210604057",
  "properties": {
    "name": "Stop 45: Jacka Street",
    "network": "PTV - Metropolitan Trams",
    "operator": "Yarra Trams",
    "public_transport": "stop_position",
    "railway": "tram_stop",
    "ref": "45",
    "tram": "yes",
    "id": "node/2210604057"
  },
  "geometry": {
    "type": "Point",
    "coordinates": [
      144.9909732,
      -37.732831
    ]
  }
},
{
  "type": "Feature",
  "id": "node/2210604058",
  "properties": {
    "name": "Stop 45: Jacka Street",
    "network": "PTV - Metropolitan Trams",
    "operator": "Yarra Trams",
    "public_transport": "stop_position",
    "railway": "tram_stop",
    "ref": "45",
    "tram": "yes",
    "id": "node/2210604058"
  },
  "geometry": {
    "type": "Point",
    "coordinates": [
      144.9909138,
      -37.7329705
    ]
  }
},
{
  "type": "Feature",
  "id": "node/2210605026",
  "properties": {
    "name": "Stop 46: McNamara Street",
    "network": "PTV - Metropolitan Trams",
    "operator": "Yarra Trams",
    "public_transport": "stop_position",
    "railway": "tram_stop",
    "ref": "46",
    "tram": "yes",
    "id": "node/2210605026"
  },
  "geometry": {
    "type": "Point",
    "coordinates": [
      144.9914293,
      -37.7299387
    ]
  }
},
{
  "type": "Feature",
  "id": "node/2210605421",
  "properties": {
    "name": "Stop 47: Regent Street",
    "network": "PTV - Metropolitan Trams",
    "operator": "Yarra Trams",
    "public_transport": "stop_position",
    "railway": "tram_stop",
    "ref": "47",
    "tram": "yes",
    "wheelchair": "no",
    "id": "node/2210605421"
  },
  "geometry": {
    "type": "Point",
    "coordinates": [
      144.9915896,
      -37.7292342
    ]
  }
},
{
  "type": "Feature",
  "id": "node/2210690053",
  "properties": {
    "bench": "no",
    "name": "Stop 128: Donald Street",
    "network": "PTV - Metropolitan Trams",
    "operator": "Yarra Trams",
    "public_transport": "stop_position",
    "railway": "tram_stop",
    "ref": "128",
    "shelter": "no",
    "tram": "yes",
    "wheelchair": "no",
    "id": "node/2210690053"
  },
  "geometry": {
    "type": "Point",
    "coordinates": [
      144.9743881,
      -37.759389
    ]
  }
},
{
  "type": "Feature",
  "id": "node/2210690060",
  "properties": {
    "bench": "yes",
    "name": "Stop 129: Moreland Road",
    "network": "PTV - Metropolitan Trams",
    "operator": "Yarra Trams",
    "public_transport": "stop_position",
    "railway": "tram_stop",
    "ref": "129",
    "shelter": "yes",
    "tram": "yes",
    "wheelchair": "no",
    "id": "node/2210690060"
  },
  "geometry": {
    "type": "Point",
    "coordinates": [
      144.9748295,
      -37.7568257
    ]
  }
},
{
  "type": "Feature",
  "id": "node/2210690069",
  "properties": {
    "bench": "no",
    "name": "Stop 128: Donald Street",
    "network": "PTV - Metropolitan Trams",
    "operator": "Yarra Trams",
    "public_transport": "stop_position",
    "railway": "tram_stop",
    "ref": "128",
    "shelter": "no",
    "tram": "yes",
    "wheelchair": "no",
    "id": "node/2210690069"
  },
  "geometry": {
    "type": "Point",
    "coordinates": [
      144.9744481,
      -37.7592591
    ]
  }
},
{
  "type": "Feature",
  "id": "node/2210712066",
  "properties": {
    "name": "Stop 129: Holmes Street",
    "network": "PTV - Metropolitan Trams",
    "operator": "Yarra Trams",
    "public_transport": "stop_position",
    "railway": "tram_stop",
    "ref": "129",
    "tram": "yes",
    "id": "node/2210712066"
  },
  "geometry": {
    "type": "Point",
    "coordinates": [
      144.9746619,
      -37.756626
    ]
  }
},
{
  "type": "Feature",
  "id": "node/2210719888",
  "properties": {
    "bench": "yes",
    "name": "Stop 129: Moreland Road",
    "network": "PTV - Metropolitan Trams",
    "operator": "Yarra Trams",
    "public_transport": "stop_position",
    "railway": "tram_stop",
    "ref": "129",
    "shelter": "yes",
    "tram": "yes",
    "wheelchair": "no",
    "id": "node/2210719888"
  },
  "geometry": {
    "type": "Point",
    "coordinates": [
      144.9749367,
      -37.7565293
    ]
  }
},
{
  "type": "Feature",
  "id": "node/2210721410",
  "properties": {
    "name": "Stop 130: Barrow Street",
    "network": "PTV - Metropolitan Trams",
    "operator": "Yarra Trams",
    "public_transport": "stop_position",
    "railway": "tram_stop",
    "ref": "130",
    "tram": "yes",
    "id": "node/2210721410"
  },
  "geometry": {
    "type": "Point",
    "coordinates": [
      144.9701272,
      -37.7561524
    ]
  }
},
{
  "type": "Feature",
  "id": "node/2210721411",
  "properties": {
    "name": "Stop 130: Barrow Street",
    "network": "PTV - Metropolitan Trams",
    "operator": "Yarra Trams",
    "public_transport": "stop_position",
    "railway": "tram_stop",
    "ref": "130",
    "tram": "yes",
    "id": "node/2210721411"
  },
  "geometry": {
    "type": "Point",
    "coordinates": [
      144.9699562,
      -37.7561047
    ]
  }
},
{
  "type": "Feature",
  "id": "node/2210721565",
  "properties": {
    "name": "Stop 131: De Carle Street",
    "network": "PTV - Metropolitan Trams",
    "operator": "Yarra Trams",
    "public_transport": "stop_position",
    "railway": "tram_stop",
    "ref": "131",
    "tram": "yes",
    "id": "node/2210721565"
  },
  "geometry": {
    "type": "Point",
    "coordinates": [
      144.9665178,
      -37.7557494
    ]
  }
},
{
  "type": "Feature",
  "id": "node/2210721569",
  "properties": {
    "name": "Stop 131: De Carle Street",
    "network": "PTV - Metropolitan Trams",
    "operator": "Yarra Trams",
    "public_transport": "stop_position",
    "railway": "tram_stop",
    "ref": "131",
    "tram": "yes",
    "id": "node/2210721569"
  },
  "geometry": {
    "type": "Point",
    "coordinates": [
      144.9663471,
      -37.7557018
    ]
  }
},
{
  "type": "Feature",
  "id": "node/2212041933",
  "properties": {
    "bench": "yes",
    "name": "Stop 130: The Avenue",
    "network": "PTV - Metropolitan Trams",
    "operator": "Yarra Trams",
    "public_transport": "stop_position",
    "railway": "tram_stop",
    "ref": "130",
    "shelter": "no",
    "tram": "yes",
    "wheelchair": "no",
    "id": "node/2212041933"
  },
  "geometry": {
    "type": "Point",
    "coordinates": [
      144.9761139,
      -37.7533773
    ]
  }
},
{
  "type": "Feature",
  "id": "node/2212041934",
  "properties": {
    "bench": "no",
    "name": "Stop 130: The Avenue",
    "network": "PTV - Metropolitan Trams",
    "operator": "Yarra Trams",
    "public_transport": "stop_position",
    "railway": "tram_stop",
    "ref": "130",
    "shelter": "no",
    "tram": "yes",
    "wheelchair": "no",
    "id": "node/2212041934"
  },